lat,lon,count_A,count_B,count_C,location
60.37408,5.34042,10,42,0,Danmarks plass
59.92556,10.850367,25,25,0,E6 Alna senter
59.928612,10.953203,13,39,0,Solheim
60.3135960714999,24.6894769317978,10,42,0,FI00208
59.2024,9.48708,42,10,0,Haukenes
59.210191,10.940097,26,12,0,Nygaardsgata
55.85917,-4.258889,48,4,0,Glasgow Kerbside
55.31531,-3.206111,4,48,0,Eskdalemuir
53.928028,9.511769,5,47,0,DESH025
54.304242,10.122364,18,34,0,DESH052
54.092278,12.141994,15,36,0,DEMV020
52.8757,6.93243,2,50,0,Valthermond-Noorderdiep
53.585262,8.59876,10,42,0,DEHB011
52.9822,-122.4922,2,50,0,Quesnel Senior Secon
52.980436,-2.111898,52,0,0,Stoke-on-Trent A50 Roadside
53.41058,-1.396139,2,50,0,Sheffield Tinsley
52.3984,4.72858,21,31,0,Amsterdam-Spaarnwoude
52.428,4.77348,21,31,0,Amsterdam-Hoogtij
52.4202,4.83206,22,30,0,Zaanstad-Hemkade
52.3705,4.64232,9,43,0,Haarlem-Schipholweg
52.2703,8.04147,13,39,0,DENI067
52.26673,10.54055,3,49,0,DENI075
52.393932,13.037474,6,46,0,DEBB054
52.438115,13.38772,24,28,0,DEBE069
52.463611,13.31825,13,38,0,DEBE061
52.481709,13.433967,34,18,0,DEBE064
52.337336,14.538595,11,41,0,DEBB045
52.50385,-3.034178,20,27,0,Aston Hill
52.502436,-2.003497,15,37,0,Oldbury Birmingham Road
51.4687,5.47235,2,50,0,Eindhoven-Genovevalaan
52.1013,5.12818,38,14,0,Utrecht-Griftpark
51.5302,9.92833,29,23,0,DENI068
52.12076,11.632669,5,47,0,DEST103
51.494756,11.981314,19,33,0,DEST102
51.680579,-3.133508,52,0,0,Hafod-yr-ynys Roadside
51.2945,3.74948,22,30,0,Philippine-Stelleweg
51.0612776980517,3.77526238964536,2,46,0,BETR710
50.9631,5.8107,48,0,0,Geleen-Vouershof
50.9844,5.82223,52,0,0,Geleen-Asterstraat
50.8459,5.71475,52,0,0,Maastricht-A2 Nassaulaan
51.1192,6.0424,6,46,0,Posterholt-Vlodropperweg
50.6288602602161,6.00232868693696,2,46,0,BETN066
51.033834,6.451483,1,51,0,DENW329
51.335872,12.334686,12,40,0,DESN077
51.344164,12.377163,2,49,0,DESN025
51.06493,13.741397,4,48,0,DESN061
51.149617,-1.438228,5,47,0,Chilbolton Observatory
49.9180174823908,1.07397185477625,48,4,0,FR25051
49.9025136027366,2.30460091195011,2,49,0,FR18053
50.6167184021922,3.45762442718173,2,46,0,BETN060
50.4564875668497,3.42794417474157,6,46,0,FR06134
49.9077785386149,4.62999782272758,32,19,0,FR14008
50.359605,7.592515,6,46,0,DERP045
50.3544,7.596583,4,48,0,DERP024
49.991518,9.117973,29,23,0,DEBY005
49.943637,11.570088,4,48,0,DEBY111
50.0723876953125,14.4306726455688,49,3,0,CZ0ALEG
50.0622978210449,14.5378198623657,24,28,0,CZ0APRU
49.1677902851312,5.38745727029717,32,20,0,FR01065
49.1250708052828,6.18121763849802,32,20,0,FR01064
49.446,7.7673,1,51,0,DERP019
49.842136,7.866208,1,51,0,DERP022
49.49256,8.47204,4,48,0,DEBW098
49.165508,9.224786,1,51,0,DEBW015
49.4112319946289,14.6763887405395,5,46,0,CZ0CTAB
49.1980895996094,16.5936431884766,50,2,0,CZ0BBNV
49.8398475646973,18.2899761199951,42,10,0,CZ0TOCB
49.49038888888889,105.90650000000001,1,48,0,Дархан
48.6409127739739,2.26872219950238,48,4,0,FR04180
48.8527914734017,2.36055697099791,16,36,0,FR04141
48.9252654190423,2.35666726581768,51,1,0,FR04058
48.8386033565984,2.41278502161662,39,13,0,FR04329
48.8702846148731,2.33250258467486,41,10,0,FR04118
48.5492988706458,5.46068793225859,2,16,0,FR30038
48.5904327918195,7.7449869187876,51,1,0,FR16034
49.07655,8.40666,2,50,0,DEBW004
48.7881,9.19101,22,29,0,DEBW118
48.889039,8.665536,1,51,0,DEBW033
48.48933,9.21079,5,47,0,DEBW147
49.0679512023926,17.4668483734131,4,48,0,CZ0ZUHR
48.7350006094679,19.15499878,47,5,0,SK0214A
48.6311111494676,20.24028397,1,51,0,SK0025A
48.9933319094685,21.26749992,50,2,0,SK0266A
48.2949796949513,4.05027903727389,2,50,0,FR14033
47.9882,7.85992,6,46,0,DEBW122
47.819019,7.567969,1,51,0,DEBW073
48.370237,10.896221,2,50,0,DEBY110
48.149606,11.536513,49,3,0,DEBY115
48.1584279994666,17.128678,39,13,0,SK0002A
47.9599999994661,17.860564,4,48,0,SK0007R
47.7317,128.9094,3,49,0,林管局
48.1075139513805,-1.67916686168757,45,7,0,FR19007
47.3946463856954,0.704872969152508,51,1,0,FR34028
47.2359956368621,6.02360822189925,10,42,0,FR82001
47.0673852211321,8.46333371888661,15,23,0,CH0005R
47.557473,9.688869,2,50,0,DEBY035
47.5080566394653,19.02806664,39,7,0,HU0041A
47.2988,123.945,2,50,0,市环境监测站
47.2043914135194,-1.552827800129,51,1,0,FR23140
46.8148188300394,2.61008200746779,2,50,0,FR34038
46.7824722190452,4.84726435734473,1,51,0,FR32001
46.6384,126.9934,31,21,0,人和东街
46.7975,130.3258,25,27,0,环保局
46.8032,130.3648,41,11,0,十一中
45.7200501800957,4.81815894213926,51,1,0,FR20013
46.0756,121.9462,7,45,0,科右前旗环保局
45.7478,126.593,1,51,0,道里建国路
45.502648,-73.663913,3,49,0,Duncan
44.7347,9.3669,22,29,0,CORTE BRUGNATELLA
45.0878,124.8292,3,49,0,江南
44.3007,10.431,18,33,0,FEBBIO
44.5422,10.8199,50,1,0,SAN FRANCESCO
44.1404,10.9172,13,37,0,CASTELLUCCIO
43.9274,12.2248,11,40,0,SAVIGNANO DI RIGO
43.9072,12.4012,8,43,0,SAN LEO
44.1564,87.9897,49,3,0,天山天池
43.6050187206077,3.87459551715864,49,3,0,FR08004
43.8343944035121,4.37422051188023,2,50,0,FR08614
43.52404453793,5.44957577219403,42,10,0,FR03021
43.1267865047699,5.9219368980426,15,37,0,FR03068
43.5997495987433,7.094723434072,13,39,0,FR24007
43.84,125.2786,36,16,0,邮电学院
43.7256,126.6772,50,2,0,丰满
43.3665299994639,-5.83303,17,33,0,ES1269A
43.5518999994638,-5.918,11,39,0,ES0880A
43.4941399201049,-1.52777378685491,26,26,0,FR31017
42.7914,-110.0547,9,43,0,Daniel South
42.0979101924658,1.848237224,1,50,0,ES1851A
42.0032765034659,2.287271914,2,49,0,ES1397A
41.8460342084663,2.217575622,1,50,0,ES1923A
41.958676873466,3.212854412,6,45,0,ES1311A
42.3191699994654,3.31583,16,34,0,ES0010R
41.924656325342,8.73569392987881,29,23,0,FR41001
41.947447,12.469588,40,12,0,Francia
41.883064,12.508939,35,17,0,Magna Grecia
41.864194,12.469531,49,3,0,Fermi
41.910257,12.54887,39,13,0,Tiburtina
41.67,13.674472,16,36,0,Fontechiari
41.999169999466,21.44084,19,22,0,MK0043A
42.0503,121.6972,24,28,0,农业园区
42.2953,123.8831,13,39,0,水上乐园
41.9339,123.6836,19,33,0,森林路
41.9228,123.3783,3,49,0,京沈街
41.8472,123.428,8,44,0,陵东街
42.298302,-72.334396,32,20,0,WARE
41.7627799994664,-1.14333,9,41,0,ES1418A
41.3987432504672,2.153385124,15,36,0,ES1480A
41.5358299994669,20.6989,12,40,0,MK0042A
40.9161,117.9664,23,29,0,铁路
41.1386,121.1303,5,45,0,北湖公园
41.1189,-73.3369,2,50,0,Westport
41.186111,-8.663056,34,18,0,PT01030
41.549722,-8.405833,16,36,0,PT01041
41.164444,-8.589444,19,32,0,PT01028
40.5528194734694,0.529982528,13,33,0,ES2017A
40.5546,110.0377,1,51,0,东河鸿龙湾
40.8369,111.751,3,49,0,如意水处理厂
40.1952,116.23,5,47,0,昌平镇
40.2865,116.17,55,0,0,定陵
40.1461,124.3933,9,43,0,元宝山
40.712064,-112.111122,1,31,0,MA
40.662841,-111.901796,34,18,0,NR
40.2943,-110.009,36,16,0,Roosvelt
40.787628,-74.6763,43,9,0,Chester
39.5700799994725,2.65583,26,23,1,ES1610A
40.1097,113.3819,12,40,0,果树场
39.8283,119.5259,35,17,0,北戴河环保局
40.0618499994709,-2.12972,23,27,0,ES1858A
38.8343,105.6775,31,21,0,体育场
38.8516,105.724,48,4,0,环保局新楼
38.9108,115.4713,2,50,0,接待中心
38.951111111,121.565,6,46,0,周水子
39.0631,121.9769,11,41,0,双D港
38.683304,-121.164457,5,24,0,Folsom
38.921848,-77.013176,6,42,0,McMillan NCORE
38.894749,-76.953427,12,40,0,DCNearRoad
38.748056,-9.2025,46,6,0,PT03100
38.738889,-9.2075,12,36,0,PT03082
38.720278,-9.145833,50,2,0,PT03075
38.6892499994758,-4.11151,5,45,0,ES1278A
38.5253,102.1864,1,51,0,市委党校(启用180727)
37.9358,102.6469,1,5,0,雷台
38.403765,-122.818294,10,42,0,Sebastopol
38.302591,-121.420838,5,43,0,Elk Grove
37.85,113.5158,38,14,0,大阳泉
37.7379,115.6426,5,47,0,市监测站
37.825,120.747,9,27,0,蓬莱环保局
37.4294,122.1206,16,36,0,华夏技校
37.154,122.471,7,45,0,荣成市环保局办公楼
37.793624,-122.263376,39,13,0,Laney College
37.864767,-122.302741,21,31,0,Berkeley Aquatic Par
37.205862,-107.254118,1,34,0,7004
37.2796399994821,-6.93807,2,48,0,ES0822A
37.3842499994816,-5.95962,22,28,0,ES0817A
37.3471899994818,-5.97963,11,38,0,ES1638A
37.3945199994816,-6.0031,20,29,0,ES0890A
37.1960999994825,-3.61266,24,23,0,ES1560A
37.1656799994827,-3.6001,6,40,0,ES1924A
37.1387999994828,-1.8422,9,41,0,ES2040A
36.6275,109.4131,3,49,0,枣园
36.5767,109.4824,3,49,0,市监测站
37.0967,114.4821,15,37,0,达活泉
36.6872,116.989,35,17,0,济南化工厂
36.6868,117.0684,18,34,0,省种子仓库
36.838,118.0448,4,48,0,东风化工厂
36.785378,-119.773206,4,12,0,Fresno - Garland
36.707299999485,-4.446,19,29,0,ES2031A
36.0464,103.831,51,1,0,铁路设计院
36.1058,103.7583,11,41,0,教育港（20181115启用）
36.0714,111.5028,4,48,0,技工学校
36.0875,111.5025,6,46,0,市委
36.283,120.008,1,0,0,胶州环保局
36.2403,120.6659,20,32,0,仰口
36.159369999488,-5.34836,7,41,0,ES1072A
35.259,113.1992,39,13,0,影视城(对照点)
34.9162,113.6113,15,38,0,岗李水库
35.0992,117.4518,43,9,0,山亭区环保局
34.3474,108.935,1,51,0,经开区
34.2572,109.06,1,51,0,纺织城
34.8097,114.3442,2,51,0,龙亭公园
34.5911,119.1478,5,47,0,矿山设计院
34.1439,-117.8508,6,46,0,Glendora - Laurel
33.8471,109.9643,10,42,0,商州区中学
34.0339,113.8172,1,51,0,市一中
33.859662,-118.200707,24,28,0,710 Near Road
34.0309,-117.617403,50,2,0,60 Near Road
32.85182,35.07873,11,59,0,תחנה:תחנה ניידת ברכבת 1(וולפסון)
32.829758,35.08025,5,56,0,תחנה:כביש 4
32.856675,35.091557,4,61,0,תחנה:ניידת התחנה המרכזית בירושלים
32.854514,35.091182,10,50,0,תחנה:תחנה מרכזית ירושלים
32.64408,35.35174,12,73,0,תחנה:רכבת קוממיות
32.789,35.03992,5,55,0,תחנה:רכבת השלום
32.88966,35.09703,15,63,0,תחנה:תחנה ניידת ברכבת 2
32.76994,35.04226,6,50,0,תחנה:ניידת2
32.78685,35.02026,4,51,0,תחנה:שגב שלום
32.7218,35.1294,4,55,0,תחנה:פזורה
32.80078,34.99066,3,55,0,תחנה:אליכין
32.9683,112.55,5,14,0,理工学院
32.88922222,115.7838889,5,47,0,阜阳职业技术学院
32.7639,116.8028,1,51,0,潘集区政府
32.939,117.3961,6,46,0,工人疗养院
32.4429,105.8242,33,19,0,老城
31.87888889,106.7513889,25,27,0,苏山坪
32.0723,118.778,1,51,0,山西路
32.0144,118.777,5,47,0,中华门
31.89708,121.1518,23,7,0,社会福利院
31.62,74.876512,1,31,0,Golden Temple, Amritsar - PPCB
31.215,107.525,10,42,0,市环境监测站
31.6908,113.3833,1,51,0,市林业局
31.7371,116.508,4,48,0,监测大楼
31.7133,118.6439,8,44,0,市教育基地
31.371,119.794,6,46,0,宜园
31.6219,120.275,18,34,0,黄巷
31.155,120.636,2,50,0,吴江市环保局
31.17,120.635,4,47,0,教师进修学校
31.3708,120.641,4,48,0,相城区
31.422,121.14,10,41,0,科教新城实小
30.9028,75.8086,10,22,0,Punjab Agricultural University, Ludhiana - PPCB
31.0283,103.613,16,36,0,灵岩寺
30.5706,104.079,44,8,0,三瓦窑
30.8064,106.056,6,46,0,西山风景区
30.8388,106.1087,1,51,0,市环境监测站
30.518,106.631,24,28,0,小平旧居
30.5494,114.3006,19,33,0,武昌紫阳
30.6414,114.2131,11,41,0,吴家山
30.4742,114.9028,5,47,0,职工中心
30.6145,116.9894,11,41,0,安庆大学(对照点)
30.9219,117.8561,1,51,0,车站新区
29.6747,91.1221,15,37,0,市环保局
29.9899,103.0013,11,41,0,建安厂
30.1366,104.6617,9,43,0,莲花山
29.7207,118.3236,5,47,0,黄山东路89号
29.635,119.026,31,21,0,千岛湖
30.049,119.946,17,21,0,富春二小
30.2311,119.6942,18,26,0,四中
29.719,120.251,7,31,0,图书馆
29.9558,122.3094,24,28,0,普陀东港
29.531814,34.939443,83,727,0,תחנה:אחוזה
29.554579,34.94873,84,726,0,תחנה:אשקלון דרום
29.3411,104.7692,27,25,0,春华路
29.4822,106.364,1,48,0,白市驿
29.1389,110.48,1,51,0,永定新区
29.0289,111.7153,1,51,0,武陵区永安(启用171130)
29.3578,113.1094,7,45,0,南湖风景区
29.4758,113.2621,4,48,0,云溪区
29.5867,115.9936,39,13,0,庐山气象台(对照点)
29.3864,117.3097,15,37,0,王岗中学
29.2958,117.2111,2,50,0,老干部活动中心
28.422681,77.148944,11,18,0,NISE Gwal Pahari, Gurugram - IMD
28.815329,77.15301,6,25,0,Alipur, Delhi - DPCC
28.646835,77.316032,20,9,0,Anand Vihar, Delhi - DPCC
28.672342,77.31526,1,30,0,Vivek Vihar, Delhi - DPCC
28.6556017,77.2859318,3,13,0,East Arjun Nagar, Delhi - CPCB
28.725645,77.749675,4,16,0,Anand Vihar, Hapur - UPPCB
28.2675,109.6958,2,50,0,吉首市计生局
28.7994,115.742,12,40,0,武术学校
28.4514,119.914,7,45,0,监测站大楼
28.4231,119.879,24,28,0,余庄前
28.6459,121.273,12,40,0,黄岩环保大楼
28.4579539995493,-16.26333,22,23,0,ES2000A
27.7314,112.0194,1,51,0,市委党校
27.7044,111.9892,4,48,0,市政府
27.4948,114.0944,51,1,0,武功山气象站
27.6428,113.8381,6,46,0,中医院
27.6178,113.865,6,46,0,安源区政府
27.9747,120.76,32,20,0,龙湾
27.3125,105.2864,6,46,0,八中
26.6761,118.0966,22,30,0,茫荡山
26.5495,106.6867,4,48,0,太慈桥
26.3003,106.805,19,33,0,桐木岭
26.2403,107.5228,10,42,0,小围寨
25.9118,114.9064,39,13,0,通天岩
26.0392,119.303,5,47,0,师大
26.0753,119.315,34,18,0,紫阳
25.297436,121.537975,5,47,0,FugueiCape
25.182722,121.529583,20,32,0,Yangming
24.9624,102.625,35,17,0,西山森林公园(对照点)
25.067,102.681,5,47,0,金鼎山
24.3898,109.4883,15,37,0,柳东小学
24.5058,118.0936,17,35,0,湖里中学
24.9617,118.6108,2,50,0,清源山
24.953278,121.221667,50,2,0,Zhongli
25.072611,121.493806,52,0,0,Sanchong
25.0632,121.513311,51,1,0,Datong
23.7586,114.6944,5,47,0,东埔
23.717533,120.202842,3,49,0,Taixi
23.913,120.685306,3,49,0,Nantou
23.415,111.2353,3,49,0,龙圩
23.5486,116.3242,3,49,0,西马
23.5739,116.3594,2,50,0,东兴
23.045083,121.161933,38,14,0,Guanshan
22.3708,107.3701,11,41,0,城南新区
22.735,108.328,14,38,0,英华嘉园
22.7019,110.1106,2,50,0,寒山水库
22.2611,113.574,2,50,0,吉大
22.2294,113.495,1,51,0,前山
22.5417,113.987,1,51,0,华侨城
22.279999999999998,114.185,52,0,0,Causeway Bay
22.281944444444445,114.15805555555556,52,0,0,Central
22.322499999999998,114.16833333333334,52,0,0,Mong Kok
22.7925,115.3622,13,39,0,新城中学
22.565833,120.337736,28,24,0,Xiaogang
21.9667,108.6236,3,49,0,市环保站
21.8536,111.9508,1,51,0,南恩路
21.958069,120.788928,50,1,0,Hengchun
19.9969,110.338,6,46,0,海南师范大学
18.791092,98.988666,22,30,0,Si Phum, Mueang
14.523536277394,100.92917127159,2,50,0,Pak Phriao, Mueang
13.729830133162,100.53649416504,37,15,0,Rama IV Rd., Pathum Wan
13.762406,100.550598,36,16,0,Din Daeng Rd., Din Daeng
12.920984,77.584908,2,30,0,Jayanagar 5th Block, Bengaluru - KSPCB
6.2633696,-75.5770035,8,44,0,MED-UNNV - Medellín,  centro occidente - Universidad Nacional, sede El Volador
-21.3316623185887,55.4789638004091,42,10,0,FR38023
-23.7937,151.16,2,19,0,Fisherman's Landing
-27.7708,153.03,3,18,0,North Maclean
-33.7972222,150.7658333,1,51,0,St Marys
-34.3075,150.58,28,24,0,Bargo
60.294268,5.324619,3,49,0,Rådal
59.433471,10.66176236,1,50,0,Kransen
54.746388216707,10.7363947812113,46,6,0,DK0054A
54.861595,-6.250873,1,50,0,Ballymena Ballykeel
54.572586,-5.974944,6,46,0,Belfast Stockman's Lane
54.09262,12.099553,10,41,0,DEMV022
53.529158,9.981599,8,44,0,DEHH081
53.365391,-2.73168,15,32,0,Widnes Milton Road
53.48152,-2.237881,9,43,0,Manchester Piccadilly
52.359478,9.7155,17,35,0,DENI048
52.15369,10.45591,3,49,0,DENI070
52.467534,13.441654,33,19,0,DEBE063
52.514072,13.469931,13,39,0,DEBE065
51.9142,4.47992,5,47,0,Rotterdam-Schiedamsevest
52.039,4.35938,10,42,0,Den Haag-Bleriotlaan
51.5405,5.85307,9,43,0,Vredepeel-Vredeweg
51.8382,5.85694,11,41,0,Nijmegen-Ruyterstraat
51.953267,7.619387,1,51,0,DENW260
51.781784,-4.691462,4,48,0,Narberth
51.391127,-2.354155,18,6,0,Bath Roadside
50.766751,7.9735,22,30,0,DERP016
51.026294,13.731608,6,45,0,DESN084
50.731478,13.75145,3,49,0,DESN052
51.155801,14.973958,8,44,0,DESN020
50.000973,8.261277,10,42,0,DERP010
50.009954,8.265563,8,44,0,DERP011
50.61153,10.693092,4,48,0,DETH072
49.3583143914495,6.15694515952111,4,47,0,FR01020
49.23074,7.003174,10,42,0,DESL020
49.754192,6.646762,2,50,0,DERP020
49.741035,7.193486,1,51,0,DERP014
49.2119445794691,18.77111435,1,51,0,SK0020A
48.9022410784482,2.39083019607274,16,36,0,FR04123
48.575992177656,7.72747875390011,47,5,0,FR16040
48.9193627535547,8.15845449460929,19,33,0,FR16017
48.573629,13.422039,11,41,0,DEBY118
48.9422225994684,19.59223175,13,39,0,SK0002R
48.783332819468,20.99223137,2,50,0,SK0042A
47.809892,7.764528,4,48,0,DEBW031
47.648459,12.188324,6,46,0,DEBY121
47.6852798494656,17.63944435,5,34,0,HU0024A
47.0750331280192,2.40717953424372,6,46,0,FR34030
47.2750173101874,4.09832992182145,15,37,0,FR26012
47.5670060049929,7.59470775490724,26,12,0,CH0029A
47.4387321494652,8.57011986,11,27,0,CH0044A
47.4919433594653,19.08778191,36,16,0,HU0045A
47.597222,-122.319722,3,49,0,Seattle-10th & Welle
46.6527,126.9636,36,16,0,党政办公中心
45.8310745543702,1.25687782977583,1,1,0,FR35003
44.637,10.9057,35,16,0,GIARDINI
45.1594722216854,17.9951,1,28,0,HR0010A
43.6105475497864,2.22999582760398,1,51,0,FR12053
43.6116532546387,3.86472303218616,3,48,0,FR08003
43.2763488363056,5.3976711150776,41,11,0,FR03006
43.4378086826446,6.7683924408099,7,45,0,FR03070
43.3726749994639,-5.872797,6,44,0,ES1572A
43.3674999994639,-4.04278,3,38,0,ES1037A
43.355829999464,-4.06361,1,40,0,ES1039A
43.2611111094641,-2.94472222,11,40,0,ES0041A
43.322777769464,-1.96027777,9,42,0,ES1494A
42.8877777694645,-8.53083333,4,45,0,ES1901A
42.8436111094645,-2.66138888,1,50,0,ES1673A
41.6890494414666,2.495746675,1,50,0,ES1275A
41.73084,13.00435,3,49,0,Colleferro-Oberdan
42.0036099994659,21.46362,3,49,0,MK0030A
41.8417,123.7117,1,51,0,沈抚新城
42.2217,123.7153,3,49,0,金沙江路北
41.6157948664667,0.615725897,12,39,0,ES1225A
41.3853432834672,2.15382196,22,29,0,ES1438A
41.5611753964668,2.101405057,8,43,0,ES1262A
41.5561153974668,2.007401267,13,38,0,ES1018A
41.5986669004668,2.287117688,5,45,0,ES1891A
41.531431,12.946064,2,50,0,Latina-Scalo
41.0781,121.0986,1,51,0,南山
40.8452,111.659,33,19,0,兴松小区
40.1438,116.72,3,49,0,顺义新城
40.6789,122.1658,3,49,0,西炮台
40.600556,-112.355,12,40,0,Erda
40.2169,-110.182297,10,42,0,Myton
40.3688899994699,-4.39694,2,47,0,ES1808A
40.4216666594698,-3.68222222,20,27,0,ES0118A
40.4624999994696,-3.58055555,9,40,0,ES1942A
40.3847222194699,-3.71861111,20,29,0,ES1943A
40.5405599994694,-3.64472,4,45,0,ES1564A
40.4199999994698,-3.74916666,4,45,0,ES1193A
40.2869399994701,-3.22222,4,45,0,ES1806A
39.8261,109.9486,6,46,0,巴音孟克林场办事处
39.16969,117.2099,3,50,0,中山北路
38.863888889,121.625,5,47,0,傅家庄
39.0511,121.7769,7,45,0,开发区
38.6819799994758,-4.08858,2,48,0,ES1279A
38.0108,112.434,50,3,0,上兰
38.4928,112.7003,3,49,0,会展中心
37.9097,114.3541,51,1,0,封龙山
37.9936111094788,-1.14472222,23,27,0,ES1633A
37.43445,118.696,16,36,0,开发区管委会
37.7658,-122.3978,2,50,0,San Francisco
37.3752499994817,-6.00558,3,47,0,ES1425A
37.2844899994821,-5.91384,2,46,0,ES1653A
37.062,114.4854,6,46,0,市环保局
36.6739,117.114,5,45,0,开发区
36.6525,119.1638,1,51,0,坊子邮政
36.9622999994837,-4.84483,1,45,0,ES1898A
36.7295599994849,-4.46553,5,44,0,ES1751A
36.1417,106.2319,5,47,0,马园
36.1912,113.1569,16,36,0,德盛苑
36.0699,120.3471,42,10,0,市北区子站
35.872,120.039,1,51,0,2号子站
35.856098,-78.574203,1,30,1,Millbrook NCore
36.161739999488,-5.44255,2,47,0,ES1637A
35.5236,107.6406,7,45,0,粮贸总公司
35.546,112.8453,34,18,0,白马寺
34.3708,107.1586,33,19,0,庙沟村
34.5021,109.4266,13,39,0,高新一小
33.8399,115.8067,21,31,0,污水处理厂
33.8561,115.7831,11,41,0,三国揽胜宫
33.6284,116.9677,12,40,0,一中
33.3947,120.225,12,40,0,开发区管委会
34.068114,-117.525796,44,8,0,Ontario Near Road
32.91575,35.29302,15,78,0,תחנה:תחנה ניידת ברכבת 1(וולפסון)
32.79232,35.052037,9,61,0,תחנה:רכבת ההגנה
32.814143,35.077715,7,51,0,תחנה:אגן כימיקלים
32.74263,35.09444,2,52,0,תחנה:רכבת קוממיות
32.68114,35.06984,3,47,0,תחנה:חיפה
32.8226,34.9651,9,71,0,תחנה:רכבת יוספטל
32.831263,35.054671,13,62,0,תחנה:רכבת השלום
32.78981,35.00926,4,50,0,תחנה:הדר
32.81148,35.1123,2,52,0,תחנה:עטרות א.תעשיה
33.027,112.5573,3,49,0,气象站
31.9286,102.1755,2,50,0,州农科所
32.1403,114.0122,19,33,0,南湾水厂
32.625,116.7039,4,48,0,焦岗湖风景区管理处
32.0878,118.626,9,43,0,浦口
31.955,119.18,19,33,0,房家坝
32.02,120.87,9,43,0,城中
32.0417,120.81,8,44,0,紫琅学院
31.4747,104.7778,8,44,0,富乐山
31.7694,120.0469,14,39,0,经开区
30.6463,111.3549,2,50,0,伍家岗
30.4908,114.3877,6,46,0,民族大道182号
30.9431,118.7175,2,50,0,开发区子站
29.9834,103.0109,8,44,0,市政府
29.8272,106.379,18,35,0,缙云山
29.8686,114.3372,7,45,0,长江产业园
29.6535,116.0174,7,45,0,五七二七厂
30.2366,119.7183,8,43,0,市政府
30.0033,120.7789,4,48,0,树下王站
29.33972,104.7228,9,43,0,青杠林路
29.1456,111.7158,22,30,0,白鹤山
28.9745,118.855,22,30,0,衢州学院
28.6428,112.4067,8,44,0,甘溪港
28.6844,115.893,18,34,0,省外办
28.6839,115.8886,24,28,0,省林业公司
27.8159,112.9227,2,50,0,岳塘
27.8328,114.9289,2,50,0,第二水厂
27.9939,120.677,8,44,0,南浦
26.5894,104.8475,15,37,0,民中
26.153611,119.9525,6,46,0,Matsu
25.8226,113.0116,2,50,0,市职中
24.506,117.7116,21,32,0,蓝田镇
23.1478,109.5681,10,42,0,德智高中
22.96583333,113.7383333,1,51,0,南城西平
22.7633,100.98,2,50,0,市环保局
22.330277777777777,114.15916666666668,16,36,0,Sham Shui Po
22.47138888888889,114.36083333333333,13,39,0,Tap Mun
22.608711,120.312017,17,35,0,Fuxing
21.5958,109.2256,9,43,0,牛尾岭水库
13.66846068306,100.50581203933,28,24,0,Samae Dam, Bang Khun Thian
13.775373291477,100.56892844813,5,5,0,Din Daeng, Din Daeng
6.3306971,-75.5686722,35,17,0,BEL-USBV - Universidad San Buenaventura
-23.8199,151.154,3,18,0,Boat Creek
-27.4975,153.035,1,20,0,Woolloongabba
-33.9333333,151.2419444,25,27,0,Randwick
63.43038,10.39355,1,46,2,Torvet
59.955477,11.073983,5,46,0,Vigernes
57.133888,-2.094198,3,49,0,Aberdeen Wellington Road
54.436985,12.721938,5,39,0,DEUB028
54.986405,-1.595362,15,10,0,Newcastle Cradlewell Roadside
54.066111,-6.883056,15,33,0,IE0090A
53.564399,9.94458,24,28,0,DEHH064
53.555668,9.943012,15,37,0,DEHH070
53.480927,9.857223,2,50,0,DEHH050
53.592301,10.053859,19,33,0,DEHH068
53.532075,9.832702,6,46,0,DEHH073
53.559784,13.26644,8,35,0,DEMV003
53.520456,14.257407,8,43,0,DEMV012
53.40337,-1.752006,18,34,0,Ladybower
52.8037,5.05051,17,35,0,Wieringerwerf-Medemblikkerweg
52.388869,13.094618,7,45,0,DEBB073
50.8580305936746,4.2883363663059,4,45,0,BETB011
50.9003,5.98685,16,36,0,Heerlen-Jamboreepad
51.312076,9.49112,6,46,0,DEHE049
51.314248,9.483397,2,50,0,DEHE013
50.3502769470215,16.3225002288818,19,30,0,CZ0HPLO
49.435953836447,2.0842890885198,5,46,0,FR18089
49.50503999947,5.97694,10,42,0,LU0102A
49.5976899994703,6.13759,33,19,0,LU0101A
49.233464,6.987601,4,48,0,DESL012
49.47869,8.443654,2,50,0,DERP041
49.438464,12.548869,3,49,0,DEBY072
49.5733947753906,15.0802783966064,19,33,0,CZ0JKOS
48.947611,13.420573,23,19,0,DEUB046
48.7262669994678,21.258836,10,42,0,SK0267A
48.3547092558406,2.64529596660528,1,51,0,FR04328
47.913256,7.908035,19,25,0,DEUB004
47.648889066211,-2.76389155041474,21,31,0,FR19033
47.0425984643993,5.40089606694759,9,43,0,FR82041
47.1052780194647,17.55666542,1,51,0,HU0037A
45.8333278376528,1.21680398495126,46,6,0,FR35010
45.7757153069085,3.09625023923328,9,43,0,FR07034
45.426509,-73.928944,1,51,0,Sainte-Anne-de-Belle
44.5694309830826,5.27896773343405,18,34,0,FR36021
43.6757493538059,4.08842150423761,2,49,0,FR08020
43.7878,125.454,26,26,0,净月潭
43.4061111094639,-2.70388888,2,49,0,ES1491A
42.8775,129.3675,5,47,0,朝阳川镇医院
42.8752777694645,-3.23138888,1,50,0,ES1489A
42.8072199994646,-1.65139,3,47,0,ES1472A
41.0112,117.9384,11,38,0,离宫
41.0228,123.1289,39,13,0,千山
41.3047,123.7308,23,29,0,彩屯
41.206402,-111.975197,11,12,0,Ogden #2
41.3694,-111.0419,3,49,0,Murphy Ridge
40.5905,110.0067,9,43,0,东河城环局
40.2519399994703,-4.27472,1,49,0,ES1810A
40.1672199994705,-3.27667,3,47,0,ES1811A
39.8392,-104.9489,2,50,0,Welby - 78th Ave. &
39.785622,-104.988469,6,46,0,Globeville
38.911944444,121.63305556,4,48,0,青泥洼桥
37.7124,112.469,1,51,0,晋源
37.3617,118.0018,3,49,0,第二水厂
37.374,120.399,15,25,0,招远环保局
37.701222,-121.903019,22,30,0,Pleasanton - Owens C
36.9639,100.9048,19,33,0,海晏县西海镇
36.6114,116.988,8,44,0,科干所
37.103683,-76.386948,1,51,0,HAMPTON
36.85555,-76.30135,2,50,0,NORFOLK - NOAA
36.1031,103.631,19,33,0,兰炼宾馆
35.76806,115.0061,3,49,0,濮水河管理处
35.0147,110.9956,30,22,0,运城中学
34.7745,113.641,8,44,0,郑纺机
34.2778,117.2933,19,33,0,农科院
34.29,117.1814,4,48,0,鼓楼区政府
33.8715,109.9154,5,47,0,监测站
32.73827,35.03613,6,58,0,תחנה:עצמאות חיפה
32.64946,34.98675,3,37,0,תחנה:צ.הנגב
32.9917,112.5192,3,50,0,环保局　
32.9735,112.5003,6,46,0,汉画馆
33.0069,114.0131,5,47,0,市彩印厂　
33.3681,120.1631,12,39,0,宝龙广场
32.4535,105.8945,3,49,0,黑石坡
32.3972,119.3633,2,50,0,市体育局（181219启用）
32.4611,119.9219,2,50,0,莲花
31.1956,107.5069,28,24,0,达县机关宾馆
31.3178,118.3708,13,20,0,四水厂
31.656,120.734,4,48,0,菱塘子站
31.671,120.721,16,30,0,兴福子站
31.2261,121.425,3,49,0,静安监测站
30.3944,114.8878,2,50,0,市政府
30.4519,114.8858,3,49,0,红卫路
30.2756,118.1371,17,35,0,黄山区政府5号楼
29.53675,106.4959,5,48,0,歇台子
29.315,110.4417,27,25,0,袁家界
28.9404,118.871,2,50,0,环保大楼
28.4586,119.93,27,25,0,莲都小学
27.725,111.9975,37,67,0,电视发射台
27.9164,112.4876,10,42,0,韶山
27.9119,112.9074,4,48,0,科大
26.5689,106.6971,50,2,0,市环保站
26.2331,111.6236,8,44,0,零陵区环保局
26.1092,119.299,10,42,0,五四北路
24.818055556,118.15694444,26,26,0,溪东
25.062361,121.526528,38,14,0,Zhongshan
24.3304,109.4108,10,42,0,环保监测站
23.0528,112.471,1,51,0,城中子站
23.05361111,113.7819444,1,51,0,东城主山
22.6164,110.1433,2,50,0,南江一中
22.371666666666666,114.11444444444444,24,28,0,Tsuen Wan
22.28888888888889,113.94361111111111,2,50,0,Tung Chung
21.4661,109.0981,8,44,0,新市环保局
20.0574,110.3232,7,45,0,海南大学
-23.9408,151.351,2,19,0,Boyne Island
-27.7528,152.651,2,19,0,Mutdapilly
59.89869,10.81495,19,33,0,Manglerud
60.1964399995374,24.95198,32,20,0,FI00902
59.057304,9.695568,3,49,0,Furulund
55.862281,-3.205782,1,51,0,Bush Estate
53.896117,9.156908,3,49,0,DESH035
53.244131,-1.454946,5,46,0,Chesterfield Loundsley Green
51.8007,4.70824,9,43,0,Dordrecht-Bamendaweg
51.8414,5.85778,7,45,0,Nijmegen-Graafseweg
51.443012,8.360714,4,48,0,DENW181
51.798629,10.618275,7,45,0,DEST039
51.638094,-2.678731,10,42,0,Chepstow A48
51.058332,3.729298,8,41,0,BETR701
51.362829,7.46353,6,46,0,DENW133
51.036105,13.730205,2,50,0,DESN092
50.486138,12.138054,3,44,0,DESN075
49.2507146918556,4.02306008416507,40,12,0,FR14011
49.2027244567871,16.6162872314453,6,46,0,CZ0BBDN
48.6963231696882,6.14612046034746,3,49,0,FR30036
49.0684356689453,13.6148014068604,25,27,0,CZ0CCHU
49.0422210694687,22.25973129,2,50,0,SK0006R
47.7900051076054,18.7461331805346,3,49,0,HU0039A
47.8319337214448,-1.83632712064428,3,48,0,FR19008
47.568236,-122.308628,6,46,0,Seattle-Beacon Hill
47.22634,-122.46256,2,50,0,Tacoma-S 36th St
46.6526446514876,3.60066325441923,8,44,0,FR07022
46.1690555550192,15.6606388888889,2,46,0,HR0012A
45.8309,130.9467,19,33,0,葫头沟
44.0521,12.5757,42,9,0,FLAMINIA
44.6104,129.6459,1,51,0,机车工厂
43.2674999994641,-2.91833333,25,26,0,ES1244A
43.1799999994641,-2.26805555,6,45,0,ES1501A
42.8947,125.1358,8,44,0,环保局
42.0044399994659,20.96807,2,50,0,MK0041A
42.373001,-109.563004,11,41,0,Juel Spring
41.771444,-72.679923,7,45,0,Hartford-Huntley
41.829495,-71.417457,22,30,0,Near Road
40.9026929034684,0.809795431,8,38,0,ES1930A
40.9395531964683,0.831336974,13,32,0,ES1948A
41.1120908514679,1.151824406,2,49,0,ES1117A
41.5471597114669,2.443253787,3,48,0,ES1816A
41.4153192904672,1.990521216,18,28,0,ES2012A
41.4007707664672,1.999634718,18,28,0,ES2011A
41.3134752074674,2.013824628,17,30,0,ES1903A
41.1556,122.0247,1,51,0,开发区
41.0833,122.9481,4,48,0,铁西工业园区
41.3283,123.8436,3,49,0,大峪
38.808055556,121.25888889,8,44,0,旅顺
39.371679,-76.746814,6,44,0,Baltimore County Nea
38.00583333,114.4586111,6,46,0,西南高教
37.8925999994792,-4.7801,16,34,0,ES2047A
37.7394,112.5583,1,51,0,小店
37.3483,-121.8947,3,49,0,San Jose - Jackson S
37.338202,-121.849892,17,35,0,San Jose - Knox Ave
37.138333,-8.542222,38,13,0,PT05011
37.3584399994817,-6.67846,5,43,0,ES1259A
37.0533,114.5261,32,18,0,邢师高专
36.4796,115.9835,1,7,0,党校
37.104089999483,-6.73408,7,33,0,ES1793A
36.8413299994843,-2.44672,21,27,0,ES1393A
36.1855,113.0844444,6,46,0,长治八中
36.1942,117.0881,17,35,0,人口学校
35.5997,103.2064,1,51,0,州委党校
34.9481,-120.4344,1,15,0,Santa Maria - Broadw
34.7187,113.727,9,41,0,经开区管委
34.7538,113.6356,19,33,0,河医大
33.975,116.8008,3,49,0,监测站
33.666,116.951,14,38,0,远航博物馆(181204启用)
32.81101,34.998101,6,57,0,תחנה:ניידת6
32.78866,35.08511,9,61,0,תחנה:רכבת ההגנה
32.81644,35.00167,5,46,0,תחנה:מודיעין חח"י
31.8766,117.307,28,24,0,三里街
32.3761,119.389,1,51,0,邗江监测站
31.2108,107.4967,4,48,0,凤凰小区
31.2058,107.4611,10,42,0,市政中心
31.7712,116.5661,7,45,0,开发区
31.7848,117.196,5,47,0,明珠广场
31.5031,120.242,4,48,0,漆塘
31.2472,120.561,4,48,0,上方山
31.0483,112.2014,3,49,0,竹园小学
30.2997,113.8531,6,46,0,沉湖七壕
29.8181,114.3036,12,40,0,森林公园
30.2028,115.0767,8,44,0,陈家湾
29.9944,122.19,9,43,0,临城新区
29.5953,105.0331,10,42,0,市监测站
29.334,120.04,5,47,0,北苑
28.7989,104.6789,3,15,0,沙坪中学
28.6969,115.973,8,44,0,京东镇政府
28.4459,117.973,2,50,0,市监测站
27.3033,111.5239,23,29,0,市水土所
26.5917,104.83,10,42,0,黄土坡
24.81119444,113.5593889,9,43,0,碧湖山庄
24.2719,116.0797,17,35,0,梅县新城
24.2654,116.1248,13,39,0,环境监控中心
22.9169,112.0392,18,34,0,新市府
22.8225,108.321,25,27,0,市监测站
22.357222222222223,114.12972222222221,41,11,0,Kwai Chung
22.44527777777778,114.02277777777778,6,46,0,Yuen Long
22.391111111111112,113.97666666666667,7,45,0,Tuen Mun
-23.8626,151.27,4,17,0,South Gladstone
-27.4296,153.158,7,35,0,Wynnum
59.93255,10.66984,2,50,0,Smestad
53.83017,8.80122,9,43,0,DENI059
53.302352,11.362965,1,50,0,DEMV017
51.9385,4.43069,1,51,0,Rotterdam-Oost Sidelinge A13
51.0889577240613,3.71611937069602,2,47,0,BETR721
51.3276588718917,4.36226059320037,3,45,0,BELR833
51.1203841374963,5.02154597760984,4,45,0,BELLD02
50.804258,8.769324,1,51,0,DEHE030
50.010325,8.451527,4,48,0,DEHE018
50.532965,8.684397,1,51,0,DEHE042
50.608136,12.211112,1,51,0,DESN093
50.0731353759766,14.3981409072876,3,12,0,CZ0ASMI
49.653465,8.817251,7,45,0,DEHE028
49.5026092529297,18.5385608673096,6,46,0,CZ0TBKR
48.6881993336682,6.19043435331308,3,49,0,FR30034
48.8892,9.19003,4,48,0,DEBW117
48.86666666666667,106.85,9,36,0,Зүүнхараа
48.0246097658125,6.58583680877113,4,47,0,FR30018
47.315472,5.037429,7,45,0,FR26043
47.203,123.6261,1,42,0,富区环保局
43.3480529322015,5.36065154221904,10,42,0,FR03014
43.8748,125.3649,1,51,0,劳动公园
43.5298619994638,-5.673498,8,42,1,ES1272A
43.2411111094641,-2.88416666,2,49,0,ES0805A
43.1308333294642,-2.07777777,2,49,0,ES1498A
42.5096939994651,1.539138,32,20,0,AD0942A
42.7205599994647,-8.92361,7,42,1,ES0005R
42.8122199994646,-1.64,2,47,0,ES1740A
41.964411839407,8.8202792970315,3,47,0,FR41003
42.153961,21.29601,26,23,0,Hani i Elezit
41.765,123.41,1,51,0,文化路
41.7972,123.3997,30,22,0,太原街
42.2117,-71.114403,1,51,0,E. Milton - Blue Hil
41.5267059304669,2.183795315,2,49,0,ES1817A
41.5491688934669,2.212050059,10,41,0,ES1814A
41.482016278467,2.188296656,3,48,0,ES0584A
41.1222,121.1178,5,47,0,天安街道
41.449722,-8.296389,17,35,0,PT01046
40.7579,111.651,8,44,0,呼市一监
40.4791699994696,-3.37778,5,45,0,ES1563A
40.4549999994696,-3.48417,9,40,0,ES1752A
40.4299999994697,-3.54583,17,29,0,ES1869A
40.1114,113.2803,7,45,0,供排水公司
39.6679,118.2185,4,48,0,陶瓷公司
39.625,121.989,15,20,0,抱龙山庄
39.5469399994726,-4.35056,17,31,0,ES0001R
40.0994444394707,-1.25388888,1,28,0,ES1917A
38.970101,-77.016715,1,51,0,TakomaRec
38.9074999994749,-6.33806,4,45,0,ES1819A
38.5036,106.1358,3,49,0,学院路
37.9508,-121.2675,3,13,0,Stockton - Hazelton
37.9755555494789,-1.23083333,5,45,0,ES1627A
37.4514,105.0197,2,50,0,沙坡头消防站
37.393,117.9776,1,51,0,北中新校
36.71,117.541,2,102,0,环境监测站
36.0725,103.841,17,35,0,生物制品所
36.1758,117.1081,3,49,0,电力学校
35.0308,110.9678,5,47,0,地区技校
34.6869,112.4664,2,50,0,豫西宾馆
34.2761,117.167,2,50,0,黄河新村
34.5667,117.732,4,48,0,台儿庄区环保局
32.65363,35.41288,12,97,0,תחנה:רכבת קוממיות
32.78562,34.98535,1,54,0,תחנה:אליכין
32.8928,115.8275,18,34,0,市监测站
32.6336,-115.5042,2,49,0,Colegio de Bachiller
32.1383,114.0614,6,46,0,审计局
31.9051,117.16,5,47,0,董铺水库
32.3153,118.3094,5,47,0,老年大学
31.955,119.146,14,38,0,消防指挥中心
31.7586,119.996,5,47,0,市监测站
31.2864,120.628,11,41,0,南门
31.67,120.758,3,39,0,海虞子站
30.5589,104.2725,2,50,0,龙泉驿区区政府
30.6197,114.2836,4,48,0,汉口花桥
30.9285,113.9153,2,50,0,文化路
30.9414,117.8178,1,51,0,市第四中学
29.7048,115.9581,2,50,0,茅山头
29.9108,121.836,16,36,0,区环保大楼
29.7736,121.633,7,45,0,钱湖水厂
29.4892,106.468,20,32,0,新山村
29.4402,112.9943,6,46,0,君山区
29.305,120.091,2,49,0,江东
28.8194,104.5969,6,46,0,石马中学
28.6064,115.9083,8,44,0,机电学校
27.6869,106.9222,38,14,0,丁字口
27.8403,112.9118,2,50,0,市监测站
27.8042,114.9119,1,8,0,新钢氧气厂
26.6009,106.7105,9,43,0,红边门
24.795928,113.598061,3,49,0,园林处
25.017,121.516306,13,39,0,Yonghe
24.3702,102.5389,11,41,0,玉溪一中
24.3406,109.3886,6,46,0,河西水厂
23.7106,113.0208,3,49,0,凤城街办
23.4794,111.26,2,50,0,龙新
22.282777777777778,114.21944444444445,9,43,0,Eastern
21.6828,110.8592,12,40,0,高岭
60.462665,5.332447,1,51,0,Rolland, Åsane
59.91898,10.69707,9,40,0,Bygdøy Alle
53.545269,9.944815,3,49,0,DEHH079
52.922983,-1.469507,17,35,0,Derby St Alkmund's Way
52.138,4.83819,15,37,0,Zegveld-Oude Meije
52.3893,4.94382,4,48,0,Amsterdam-Nieuwendammerdijk
52.398406,13.368103,4,48,0,DEBE027
52.5066,13.332972,6,46,0,DEBE067
51.524022,6.748402,1,51,0,DENW034
51.651166,12.302866,1,51,0,DEST015
51.2630368232114,4.27888997650593,6,43,0,BETR892
50.754704,6.093923,1,51,0,DENW094
51.031473,7.010934,1,51,0,DENW355
51.119514,13.675005,3,47,0,DESN051
50.7894439697266,14.0867986679077,6,46,0,CZ0USNZ
50.10175,8.542517,5,47,0,DEHE005
50.546384,9.680167,1,51,0,DEHE134
50.1221885681152,14.4675779342651,1,51,0,CZ0AKOB
50.0880661010742,14.429220199585,4,47,0,CZ0AREP
49.1311254607308,6.20722386597328,1,51,0,FR01022
49.440478,11.036096,14,38,0,DEBY120
49.2329063415527,17.6671752929688,1,51,0,CZ0ZZLN
48.902477279391,2.45249954032755,1,51,0,FR04156
48.173194,11.648036,1,51,0,DEBY089
48.1108129462492,-1.68282300489394,1,51,0,FR19010
47.3776165600282,8.53041092115182,1,37,0,CH0010A
47.518013,10.404232,8,44,0,DEBY122
47.5619430494654,18.96000862,1,50,0,HU0036A
46.0111113455841,8.95717356317848,1,37,0,CH0011A
44.2967,86.0497,2,50,0,艾青诗歌馆
43.91,125.287,1,51,0,客车厂
43.6389642135529,5.09999637937892,1,51,0,FR02041
43.1787999994641,-6.5527,2,48,0,ES1432A
43.2561199994641,-5.77594,12,35,0,ES1651A
43.5588499994638,-5.92748,3,47,1,ES1424A
43.4391699994639,-4.85,4,28,0,ES0008R
43.298333329464,-2.93027777,4,47,0,ES1595A
43.0413888794643,-5.08972222,3,43,0,ES1989A
42.8491666594646,-2.47722222,6,45,0,ES1544A
42.8944399994645,-2.16583,1,48,0,ES1749A
43.0818999994643,-1.9127,1,47,0,ES2068A
41.774849,12.223413,9,43,0,Fiumicino Porto
42.0352,119.2654,5,47,0,银河街
41.6455555494667,-4.73027777,23,23,0,ES1631A
41.0095056884682,0.912875859,12,34,0,ES1855A
41.0082116794681,0.831084709,5,41,0,ES1854A
41.1594500574678,1.239703719,1,50,0,ES1124A
41.3468230374673,1.686575492,2,49,0,ES1815A
41.3031125334674,1.991523957,15,32,0,ES1910A
41.3217684044674,2.082140639,17,29,0,ES1983A
41.464025,12.913039,1,51,0,Via Tasso
41.0399999994681,21.3564,5,35,0,MK0037A
41.0971,122.9642,13,39,0,铁西三道街
41.0831,123.0156,1,51,0,明达新区
41.252222,-8.660556,1,51,0,PT01031
41.569444,-8.456944,1,50,0,PT01042
40.9102799994684,-3.46667,2,48,1,ES1802A
41.2741699994675,-3.1425,9,39,0,ES0009R
40.6575,109.8104,1,34,0,包百大楼
40.8725,114.904,1,51,0,北泵房
40.598056,-111.894167,10,42,0,Copper View
40.7955,-111.9309,13,39,0,Rose Park
40.6647199994691,-4.70083,7,39,0,ES2029A
40.4747222194696,-3.575,7,42,0,ES1645A
39.9279,116.225,6,46,0,古城
39.6295,118.1997,1,51,0,小山
40.0181,119.7624,26,26,0,第一关
39.617,122.011,21,14,0,东山公园
38.8957,115.5223,2,50,0,华电二区
39.10465,-94.57055,2,50,0,Troost
38.895683,-76.958089,2,50,0,RIVER_Terrace
38.748611,-9.148889,35,16,0,PT03072
38.0513,114.4548,2,50,0,职工医院
37.954167,-8.838056,1,51,0,PT04001
38.615,-7.3975,1,51,0,PT04006
38.174395999478,-3.01022,3,47,0,ES1718A
37.809,120.773,9,27,0,蓬莱博物馆
37.161,122.41,1,51,0,山东成山轮胎公司
37.187,122.019,2,50,0,文登市丝绸公司
37.871111,-8.723889,1,51,0,PT04003
37.3125,-7.678611,1,51,0,PT05012
37.2372199994823,-3.53417,19,30,1,ES0007R
37.0964,114.5331,20,32,0,路桥公司
36.5336,116.734,4,48,0,长清党校
36.881,118.746,5,47,0,监测站
37.0519399994833,-6.55528,23,26,0,ES0017R
36.1939,113.0972,1,51,0,监测站
36.2126,113.0886,3,49,0,审计局
36.253,120.014,9,43,0,胶州一中
35.428,116.6305,1,51,0,火炬城
32.791929,35.02111,4,50,0,תחנה:רכבת השלום
32.996,113.996,5,47,0,天方二分厂　
32.8985,117.3065,1,51,0,高新区
32.1083,118.803,26,26,0,迈皋桥
32.2786,118.3244,5,47,0,人大宾馆
31.92,120.302,6,46,0,第二实验小学
31.96,120.913,6,46,0,南郊
31.882,120.55,5,47,0,城北小学
31.751,119.579,1,51,0,金坛市环境监测站
31.354,119.818,9,43,0,宜兴市环保局
30.6872,104.176,19,33,0,十里店
30.65638889,104.0238889,2,50,0,大石西路
30.9892,112.1969,1,51,0,掇刀
30.6617,117.4697,2,50,0,池州学院
30.6539,117.4974,3,50,0,平天湖
29.7228,106.626,8,44,0,两路
29.6453,106.562,13,36,0,礼嘉
28.76389,104.6417,2,50,0,市政府
28.2189,112.8872,3,49,0,高开区环保局
27.8978,102.2625,1,51,0,西昌市政府
27.7569,111.9561,3,49,0,涟钢
28.0089,120.634,7,45,0,瓯海
28.0036449995539,-15.411851,2,47,0,ES1919A
26.8956,112.6211,1,51,0,珠晖区环保局
27.11,114.9739,2,50,0,市森林工业局
26.4519,111.5989,7,45,0,冷水滩区环保局
26.0931,119.58,8,44,0,九龙
24.68636111,113.5970833,10,42,0,曲江监测站
22.9539,112.0539,1,51,0,牧羊
23.1617,112.565,3,49,0,坑口子站
22.5908,114.263,1,51,0,盐田
21.6158,108.3411,2,50,0,沙万
21.4086,109.1436,9,43,0,海滩公园
19.9507,110.576,8,44,0,东寨港
12.7053545,101.1818364,6,46,0,Noen Phra, Mueang
6.1856666,-75.5972061,1,51,0,ITA-CJUS - Itagüí - Casa de Justicia Itagüí
-32.8961111,151.6691667,7,45,0,Wallsend
52.9169,5.57349,6,46,0,Balk-Trophornsterweg
53.142836,8.212084,24,28,0,DENI143
53.141303,13.031662,19,25,0,DEUB030
52.969377,-1.188851,2,50,0,Nottingham Western Boulevard
52.427886,10.793683,3,49,0,DENI157
51.6347,3.91662,6,46,0,Zierikzee-Lange Slikweg
52.105,5.12446,12,40,0,Utrecht-de Jongweg
52.1116,5.70842,17,35,0,Wekerom-Riemterdijk
51.759554,11.449438,6,46,0,DEST095
51.01628,2.582323,13,36,0,BETN029
51.2642897846451,4.34127999246466,4,45,0,BETR822
51.2558066447111,4.38535982604938,3,45,0,BETR891
50.8822988262256,5.61887398523951,1,48,0,BETN046
50.972331,11.010446,2,43,0,DETH081
50.984874,11.019353,7,45,0,DETH043
50.6831245422363,13.9978733062744,31,21,0,CZ0UULD
50.583614,5.397446,1,47,0,BETR240
50.072119,8.228865,11,41,0,DEHE112
50.3724784851074,12.6153802871704,20,32,0,CZ0KPRB
49.856258392334,18.2697410583496,9,43,0,CZ0TOPR
48.760911372973,1.2336473965285,7,45,0,FR34047
48.5280649624323,2.65361436613623,16,36,0,FR04122
48.8572835390584,7.31417287482956,11,41,0,FR16031
48.5703455482561,7.76633088993828,3,49,0,FR16038
48.76871,9.18449,16,36,0,DEBW116
48.95218,10.59772,1,51,0,DEBY187
48.345778,9.207639,4,48,0,DEBW087
48.1069141113793,20.7899801149633,32,20,0,HU0027A
47.340253323593,5.05833251650146,4,48,0,FR26014
46.2666139994637,20.153053,3,48,0,HU0057A
45.7583572550156,4.88621530806415,18,34,0,FR20019
43.358289999464,-5.86643,6,44,0,ES1268A
43.5704499994637,-5.95828,3,47,0,ES2054A
43.2130555494641,-3.13444444,3,48,0,ES1598A
42.891794,20.868936,5,44,0,Mitrovice
42.461143,21.467201,3,45,0,Gjilan
42.4388899994652,-2.25028,5,44,0,ES1779A
42.2360870106484,9.19003485112794,14,38,0,FR41024
42.086803,11.806498,7,45,0,Civ. Via Morandi
41.89402,12.475368,14,38,0,Arenula
42.1758299994656,-1.74333,10,39,0,ES1649A
40.6592,122.2414,1,51,0,学府南路
40.34694443947,-3.705,9,40,0,ES0125A
40.4097222194698,-3.68555555,3,46,0,ES1939A
40.009439999471,3.85648,1,49,0,ES1828A
39.8909199994714,4.252975,4,40,2,ES1095A
40.1194,124.3678,4,48,0,民主桥
39.8680599994715,-4.02083,5,45,0,ES1818A
38.8756,115.442,7,45,0,胶片厂
39.0343,117.707,26,26,0,第四大街
39.2474,117.7918,5,48,0,河西一经路
39.143197,-76.846192,26,26,0,Howard County Near R
38.1379299994781,-4.90397,2,44,0,ES1971A
38.1081399994783,-4.9268,1,47,0,ES0926A
37.5325,122.0508,11,41,0,山大分校
37.2533599994822,-6.93514,4,44,0,ES1340A
37.1856799994826,-6.96414,2,48,0,ES0823A
36.7056,-119.7414,35,17,0,Fresno - Drummond St
36.719639999485,-4.4475,10,39,0,ES1750A
36.0022,106.2792,1,51,0,监测站
36.10139,111.505,3,49,0,唐尧大酒店(启用161122)
36.1032,120.3664,7,45,0,四方区子站
36.2120399994877,-5.43027,1,48,0,ES0634A
35.272,113.884,10,42,0,开发区
34.2713,108.954,1,51,0,市人民体育场
34.2303,108.883,1,51,0,高新西区
32.8913,117.4186,3,49,0,蚌埠学院
32.0775,118.795,14,38,0,玄武湖
32.3292,119.8767,4,48,0,王营
31.896,121.173,29,20,0,海门市监测站
31.7956,117.302,32,20,0,包河区
30.0125,103.009,11,41,0,大兴526台
29.7125,106.617,11,41,0,空港
30.3175,112.2551,7,45,0,市图书馆
29.3628,104.7547,1,51,0,大塘山
28.639645,77.146263,3,26,0,Pusa, Delhi - IMD
28.4501238,77.0263051,1,28,0,Vikas Sadan, Gurugram - HSPCB
28.699793,77.165453,3,26,0,Wazirpur, Delhi - DPCC
28.47272,77.482,7,25,0,Knowledge Park - III, Greater Noida - UPPCB
28.4088421,77.3099081,18,1,0,Sector- 16A, Faridabad - HSPCB
28.56,112.3439,2,50,0,市特殊教育学校
28.4553749995493,-16.27675,6,41,1,ES2003A
27.6506,106.9231,1,46,0,舟水桥(190215启用)
27.8867,113.095,13,39,0,株冶医院
27.8667,113.167,2,50,0,市四中
26.4703136,80.3229863,3,26,0,Nehru Nagar, Kanpur - UPPCB
24.099611,120.677689,5,47,0,Dali
23.4792,111.2897,4,48,0,市环保
21.7431,108.5989,1,51,0,港区一小
18.12614,100.1654,3,35,0,Na Chak, Mueang
12.9352049,77.6814488,2,27,0,BWSSB Kadabesanahalli, Bengaluru - CPCB
6.3790379,-75.4509125,7,36,0,GIR-SOSN - Girardota - S.O.S Aburrá Norte
-23.8443,151.252,6,12,0,Memorial Park
-34.4186111,150.8863889,31,21,0,Wollongong
61.12087,10.46563,7,43,0,Lillehammer barnehage
60.5300199995406,27.6754,3,49,0,FI00893
54.09323,10.240596,7,45,0,DESH008
53.771245,-1.759774,30,21,0,Bradford Mayo Avenue
53.80378,-1.546472,2,50,0,Leeds Centre
53.078663,8.825173,8,44,0,DEHB006
51.4344,4.35984,7,45,0,Huijbergen-Vennekenstraat
51.751745,-1.257463,14,38,0,Oxford Centre Roadside
50.6408018273658,3.07477152078998,22,30,0,FR11007
50.977462,11.32607,2,50,0,DETH083
50.3642606948305,3.52273440352186,36,16,0,FR06006
50.499955,11.134593,5,47,0,DETH027
49.8688854647733,2.23980543050657,1,51,0,FR18035
49.6115699994703,6.11847,28,24,0,LU0109A
48.371109009467,17.58501816,23,29,0,SK0045A
47.7522102114299,-3.37565324205297,1,51,0,FR19021
48.1086536280958,-1.66576399764851,4,48,0,FR19002
46.0707,122.0931,3,49,0,北滨河
44.6516,10.9073,3,48,0,PARCO FERRARI
43.6430597871857,1.46764954488879,28,23,0,FR12054
43.4805555494638,-8.24138888,2,47,0,ES1867A
42.8555555494646,-2.66805555,3,48,0,ES1492A
41.874894,12.345598,4,48,0,Malagrotta
41.768189,12.237048,2,50,0,Fiumicino Villa Guglielmi
41.8864,124.0878,16,36,0,大伙房水库
41.802222,-8.693889,3,49,0,PT01047
41.3084024964674,1.647339954,7,38,0,ES1899A
40.7612,111.717,4,48,0,化肥厂生活区
40.1852799994705,-3.67972,4,45,0,ES1809A
40.2811099994702,-3.80167,10,39,0,ES1565A
40.3008299994701,-3.45889,1,48,0,ES1801A
38.8707,115.5214,3,49,0,监测站
39.1587,117.764,7,45,0,汉北路
39.1495,117.3916,5,48,0,西四道
38.887629999475,-7.01145,4,45,0,ES1601A
37.4658,118.5019,3,49,0,西城阳光环保公司
37.5433,121.3719,5,47,0,轴承厂
37.5436,121.3181,3,49,0,西郊化工站
37.1997699994825,-6.92027,2,46,0,ES0892A
37.3424599994818,-5.83372,3,46,0,ES1640A
36.4978,115.9819,5,40,0,监控中心(20190222启用)
36.9967799994835,-1.89535,2,47,0,ES1845A
36.8474499994843,-2.03819,4,44,0,ES0624A
35.9019,114.17,8,44,0,市监测站
36.061,114.483,2,50,0,棉研所
36.174699999488,-5.43277,6,42,0,ES0633A
34.3731,109.2186,3,49,0,临潼区
34.7496,113.5991,18,32,0,市监测站
34.7519,119.3608,17,35,0,胡沟管理处
31.9025,102.2218,3,49,0,州监测站
31.6861,118.5058,3,49,0,湖东路四小
31.03389,112.1908,30,22,0,西山林语
29.0531,111.6625,2,50,0,武陵区长庚
29.6039,115.9114,12,40,0,综合工业园
27.5733,109.9333,6,46,0,林科所
25.0492,101.538,4,48,0,市经济开发区
24.339,102.5381,1,51,0,文体中心
23.569031,119.566158,27,25,0,Magong
22.775,115.3653,3,49,0,市环保局
-23.7744,151.105,1,20,0,Targinie
54.91839,-1.408391,1,51,0,Sunderland Wessington Way
52.3883,6.40293,9,43,0,Hellendoorn-Luttenbergerweg
52.687298,-1.980821,2,50,0,Cannock A5190 Roadside
51.8694,4.58006,1,51,0,Ridderkerk-Hogeweg
50.9260951164893,4.39592001413703,6,41,0,BETE008
50.077191,8.230316,7,45,0,DEHE037
50.124589,8.691911,8,44,0,DEHE041
50.125332,8.746343,2,50,0,DEHE008
50.5976,-3.71651,3,49,0,Yarner Wood
48.78313,9.18072,10,42,0,DEBW099
47.9070790612744,1.90114056839351,1,51,0,FR34013
47.7476802263183,7.32136838025535,13,39,0,FR16069
47.968753,11.220172,6,46,0,DEBY109
48.1250189994665,17.125611,3,49,0,SK0001A
44.8004,10.8843,2,49,0,REMESINA
44.5,11.3285,40,11,0,PORTA SAN FELICE
43.87483,-106.50974,1,51,0,Johnson County
43.5351849994638,-5.658337,8,42,0,ES1270A
42.659656,21.157309,25,13,0,Prishtine, Rilindje
42.82231,-106.36501,1,51,0,Casper Gaseous
42.6038888794649,-5.58722222,11,35,0,ES1161A
42.094147,11.795509,23,29,0,Civ. Via Roma
41.6299999994667,-4.74055555,13,33,0,ES2010A
40.8115,114.8814,7,45,0,五金库
40.3937,116.644,19,33,0,怀柔镇
40.733501,-111.871696,5,47,0,Hawthorne
40.5005555494695,-3.68972222,1,48,0,ES1947A
40.6338899994691,-4.01333,9,41,0,ES1803A
39.7294,98.5023,2,50,0,富康家世界子站
39.79777778,98.26722222,7,45,0,酒钢宾馆
38.843,105.6975,6,46,0,盟环保楼
38.3254,116.8584,2,50,0,电视转播站
37.4442,118.5857,20,32,0,耿井村
36.6622,117.049,12,40,0,市监测站
37.0160999994834,-6.57042,4,43,0,ES1878A
36.270592,-115.238282,5,47,0,Joe Neal
36.1856199994879,-5.48893,5,43,0,ES0629A
34.9058,108.9344,2,50,0,新区管委会
35.3962,119.54,3,49,0,港务局
34.6575,109.2,1,51,0,阎良区
34.6972,119.3581,6,46,0,德源药业(直管站)
33.8997,116.8067,4,48,0,烈山区政府
32.1142,112.1825,13,39,0,高新管委会
32.0092,118.737,20,32,0,奥体中心
32.1883,119.68,2,50,0,新区办事处
31.4539,104.7536,2,50,0,市人大
29.6588,90.9798,28,24,0,区辐射站
30.0561,103.8286,1,51,0,区人社局
30.2897,120.157,27,25,0,朝晖五区
29.5947,105.0717,1,51,0,东兴区政府
28.6542,121.419,6,46,0,台州环保大楼
28.1337319995526,-15.432823,10,32,0,ES1573A
27.7231,109.1794,4,48,0,铜仁七中
27.7758,115.0586,2,51,0,北岗(对照点)
27.807,114.9149,3,41,0,新钢沁园村(20190301启用)
26.0797,119.268,6,46,0,杨桥西路
24.7121,108.2134,2,50,0,东仁乐园
24.5157,117.6569,1,17,0,漳州三中
24.4674,117.6336,6,47,0,九湖
23.8982,100.0782,3,49,0,市气象局
23.105,113.433,16,36,0,市八十六中
22.627392,120.358083,3,49,0,Fengshan
21.6414,108.3506,2,50,0,大海花园
20.0053,110.283,12,40,0,秀英海南医院
13.652156925663,100.53183964688,5,27,0,Residence for Dept. of Primary Industries and Mines
60.170873,10.261552,1,23,0,Hønefoss skole
59.2103,10.9454,2,45,0,St.Croix
54.6861114494939,25.2108345,1,51,0,LT00002
54.7152786294941,25.28944397,2,50,0,LT00003
54.97825,-1.610528,15,37,0,Newcastle Centre
54.304676,10.135158,6,46,0,DESH027
53.5453,-113.4992,1,51,0,Edmonton Central
52.131742,11.631919,3,49,0,DEST112
52.0751,4.31587,4,48,0,Den Haag-Veerkade
52.0677,5.12051,4,48,0,Utrecht-Erzeijstraat
50.7065553864362,3.18065594332915,15,37,0,FR11034
51.20951873198,4.43179223079244,3,45,0,BETR802
50.9549166883318,4.43541698492774,2,45,0,BETE009
50.658444,5.627835,2,46,0,BETR221
50.048397,10.232076,8,44,0,DEBY068
49.146,9.22589,3,49,0,DEBW152
48.8733329994682,2.330278,8,44,0,FR04131
49.015245,12.101557,5,47,0,DEBY063
48.8963890094683,18.04139328,5,47,0,SK0047A
48.22915,8.39062,1,51,0,DEBW156
48.3094559994669,18.076831,6,46,0,SK0269A
46.9429682344805,2.00326104989222,15,36,0,FR34057
45.6175,122.8211,3,49,0,市环保局
45.468297,-73.741185,1,53,0,Aéroport de Montr��al
45.0559,9.7479,21,28,0,GERBIDO
44.5782,129.6115,7,45,0,文化广场　
43.4015009994639,-5.80287,4,46,0,ES2051A
42.4638899994651,-2.42778,3,46,0,ES1602A
41.8625,124.0383,2,50,0,东洲区
40.731689,-74.066566,19,33,0,Jersey City
40.33971999947,-3.73583,10,39,0,ES1567A
40.34193999947,-3.83389,4,45,0,ES1890A
40.3128499994701,-3.71724,6,43,0,ES2028A
39.7884,109.9734,1,51,0,奥林花园
39.65782,118.1838,2,50,0,十二中
38.6016,105.9512,12,40,0,贺兰山马莲口
38.2286,-85.6544,1,51,0,Cannons Lane
37.18,119.959,3,49,0,莱州外经委
36.885,120.515,2,50,0,人民广场子站
35.0611,111.0233,4,48,0,禹都开发区
35.04388889,111.0522222,6,46,0,外滩首府
35.3461,-118.8511,3,13,0,Edison
34.7822,111.19,3,49,0,第一小学
34.6686,112.4433,2,50,0,凯旋路小学
32.78943,35.00168,5,56,0,תחנה:יד רמבם 2
32.79695,34.97059,1,45,0,תחנה:דליה
33.0122,112.5224,8,44,0,瓦房庄
32.3039,118.3117,6,38,0,市政府原办公楼(190307启用)
31.172,120.658,2,50,0,吴江开发区
31.453,121.115,2,50,0,太仓市监测站
30.5719,114.3672,3,49,0,东湖梨园
30.4753,114.1525,19,33,0,沌口新区
30.9697,117.8472,2,50,0,市职教基地
30.0506,103.8986,3,49,0,蟆颐观
29.36028,104.7778,1,51,0,檀木林体育馆
28.2169,116.9983,3,49,0,三川水表
28.4622,117.9511,1,51,0,凤凰光学
28.1178,112.9844,4,48,0,天心区环保局
26.6611,119.5392,3,49,0,宁德市监测站
25.5811,100.2171,1,51,0,大理古城
25.0359,102.638,10,42,0,碧鸡广场
23.1422,113.235,4,48,0,广雅中学
23.5538,113.589,3,48,0,帽峰山森林公园
23.3667,116.6794,1,51,0,金平子站
22.883583,120.530542,1,51,0,Meinong
22.4137,107.3476,7,45,0,市环保局江州分局
22.5328,113.024,1,11,0,圭峰西
21.1997,110.4019,1,51,0,环保局宿舍
56.82266,-5.101102,5,47,0,Fort William
53.3304,6.27681,4,48,0,Kollumerwaard-Hooge Zuidwal
52.543041,13.349326,8,44,0,DEBE010
52.0918,6.60537,6,46,0,Eibergen-Lintveldseweg
50.8407885668979,4.37614906974903,3,33,0,BETB008
50.8386311880319,4.37438828335274,2,33,0,BETB006
51.2501064987036,4.34210451132214,2,46,0,BETR897
50.7952986270859,4.25262845287286,2,46,0,BETE007
50.7681375136532,4.22519424674671,6,43,0,BETN040
50.888,5.9705,3,49,0,Heerlen-Looierstraat
51.260681,7.147401,2,50,0,DENW189
51.205466,10.448476,4,48,0,DETH091
50.4651921568256,3.93971432552384,2,44,0,BETN070
50.386426,8.059909,5,47,0,DEHE131
50.550028,9.684854,3,49,0,DEHE059
49.44591,11.088444,6,46,0,DEBY053
48.8688664798191,2.31194014782137,2,50,0,FR04031
47.8202333127077,7.53867983063671,2,50,0,FR16059
48.137252,11.564924,20,32,0,DEBY037
47.1372157133461,4.95057959817132,16,36,0,FR26035
43.320833329464,-3.11305555,2,49,0,ES0587A
42.6840234675827,2.90345381295555,1,51,0,FR08713
41.3472,123.8142,1,51,0,威宁
40.8333,121.045,16,36,0,开发区
40.4191666594698,-3.70333333,4,45,0,ES1422A
40.4649999994696,-3.60888888,2,46,0,ES1946A
40.0031,116.407,15,36,0,奥体中心
38.856111111,121.51805556,1,51,0,七贤岭
38.4186,112.7356,1,10,0,机引
37.9027399994792,-4.77958,2,45,0,ES1800A
36.4605899994864,-6.20307,2,48,0,ES1593A
35.7672,115.0628,2,50,0,油田运输公司
35.878,120.005,23,18,0,JN子站
36.0851,120.4587,1,51,0,崂山区子站
35.889402,-78.8747,1,48,0,Burdens Creek
35.8652,-78.8197,2,49,1,Triple Oak - Near Ro
34.8731,108.9589,6,46,0,新区兰芝公司
34.7772,111.1928,20,32,0,市政府
34.136474,-117.923963,1,51,0,Azusa
33.575,119.007,12,40,0,北京南路
33.6297,119.0186,3,49,0,淮阴区监测站
34.0667,-117.7506,1,51,0,Pomona
32.63244,35.06565,1,41,0,תחנה:אליכין
32.18888889,119.4369444,1,51,0,市疾控中心
31.2659,121.536,11,41,0,杨浦四漂
30.5947,114.3008,18,34,0,汉口江滩
29.9572,121.713,7,45,0,龙赛医院
28.2558,109.6414,20,32,0,跃进水库
28.1944,113.0014,8,44,0,火车新站
27.8336,113.251,7,45,0,大京风景区
26.5892,104.8,6,46,0,窑上
25.5364,103.8,8,44,0,烟厂办公区
25.2697,110.2819,1,51,0,监测站
24.3663,109.3957,24,28,0,市九中
24.3289,116.1278,4,48,0,嘉应大学
24.151958,120.641092,2,50,0,Zhongming
22.7833,108.244,16,36,0,沙井镇街道办
22.5978,114.297,1,51,0,梅沙
-27.9612,153.402,1,20,0,Southport
59.91132,10.70407,16,36,0,Hjortnes
56.1505584695037,10.2008419,4,48,0,DK0051A
53.451826,-2.742134,3,42,0,St Helens Linkway
52.334,4.77401,2,50,0,Badhoevedorp-Sloterweg
52.3854,4.87575,5,43,0,Amsterdam-Haarlemmerweg
51.6537,4.51527,6,46,0,Fijnaart-Zwingelspaansedijk
51.7866,4.45053,10,42,0,Westmaas-Groeneweg
50.428995,4.458681,1,47,0,BETR502
50.095683,4.594763,1,48,0,BETN100
50.4078101998156,4.39589711703924,1,48,0,BETR512
47.723186,12.858856,1,51,0,DEBY079
45.4608687180178,5.18107831692355,3,49,0,FR27010
43.6099621683997,3.89860748470315,8,43,0,FR08030
43.367777769464,-8.41888888,13,36,0,ES1138A
43.2549999994641,-2.90222222,2,49,0,ES1713A
41.7156,125.9361,1,51,0,光明
41.3369,123.7528,3,49,0,溪湖
40.462181,-74.429436,1,28,0,Rutgers University
40.4241666594698,-3.71222222,10,39,0,ES0115A
39.7711,98.2908,4,48,0,气象局
39.751099,-104.987198,2,50,0,Denver - CAMP - 2105
38.9846,117.3747,2,51,0,津沽路
39.1067,117.1941,1,52,0,大理道
39.146025,-84.538375,3,48,0,Cincinnati Near Road
39.055302,-76.878304,8,44,0,HU-Beltsville
38.5061,102.1708,1,51,0,公司二招
37.8964,112.5628,17,36,0,巨轮
37.364,120.394,9,30,0,招远教育局
36.67,116.93,2,50,0,农科所
36.7422,-107.9769,26,26,0,Bloomfield
36.1362299994882,-5.45343,12,37,0,ES1664A
35.0622,118.2939,1,34,0,鲁南制药厂
34.2324,108.94,1,51,0,小寨
34.7975,114.3733,1,11,0,妇幼保健院
34.7964,114.3644,1,38,0,汴京公园(20190322启用)
34.4286,115.6697,7,46,0,环境监测站
34.445,115.6125,6,39,0,梁园区档案局(20190220启用)
34.7837,117.2852,18,34,0,薛城环保局
33.5039,119.135,7,45,0,楚州区监测站
32.965,114.018,6,46,0,市一纸厂　
31.3508,118.3528,4,38,0,监测站
31.5475,120.354,11,41,0,旺庄
31.8108,119.9736,2,51,0,行政中心
31.7897,119.8914,2,51,0,钟楼
31.2036,121.478,1,51,0,十五厂
31.2071,121.577,1,51,0,浦东张江
29.732,120.209,3,48,0,富林印务
28.6047,112.3347,7,45,0,资阳区政务中心
28.6869,115.852,12,40,0,建工学校
27.7297,109.1916,2,50,0,铜仁卫校
26.6946,119.5001,3,50,0,金涵水库
26.6607,119.5202,1,11,0,蕉城区农机局
24.445833333,118.06361111,3,49,0,鼓浪屿
23.3633,116.7244,2,50,0,龙湖子站
22.8464,108.239,11,41,0,区农职院
-26.6917,153.104,1,20,0,Mountain Creek
59.92773,10.84633,5,44,0,Alnabru
53.371306,-2.239218,1,51,0,Manchester Sharston
52.3275,4.71501,1,51,0,Hoofddorp-Hoofdweg
52.800773,10.756733,17,27,0,DEUB005
52.194225,12.561389,1,51,0,DEBB065
51.5935,4.82494,5,47,0,Breda-Tilburgseweg
51.523567,7.483597,9,43,0,DENW136
51.0194221752014,2.25098945579386,7,45,0,FR10012
50.9023,5.88175,6,46,0,Wijnandsrade-Opfergeltstraat
50.654066,10.769534,7,37,0,DEUB029
48.8563969790789,2.33527837890279,3,49,0,FR04071
47.7222,128.8736,2,50,0,中心医院
46.821089115795,4.8350023537165,1,51,0,FR32002
44.9079,82.0485,1,51,0,博乐市西郊区
43.9167,125.323,8,44,0,食品厂
43.1444444394642,-2.96333333,4,47,0,ES1349A
42.421494,-83.425168,3,17,0,LIVONIA NEAR ROAD
43.0483333294643,-2.19111111,3,48,0,ES1499A
41.7089,123.439,11,41,0,新秀街
40.8033,111.658,2,50,0,小召
40.4516666594697,-3.67722222,5,44,0,ES0120A
39.5458799994726,2.69971,17,34,0,ES1995A
39.0877,117.307,7,45,0,跃进路
39.1175,-94.6356,5,47,0,WY/KC
38.593328,-121.503728,18,28,0,Bercut Dr
37.2815599994821,-6.83384,3,45,0,ES1258A
36.5109999994861,-4.863,6,42,0,ES2030A
36.035,-107.904167,6,46,0,Chaco Culture Nation
34.7781,114.3389,2,50,0,肿瘤医院
33.721,113.322,3,49,0,新华旅馆
33.9461,116.7844,2,50,0,职业技术学院
33.63063889,116.989,15,37,0,火车站
33.819305,-117.918759,8,44,0,Anaheim Near Road
33.37,-112.6207,1,51,0,Buckeye
32.215,119.491,1,51,0,职教中心
31.8585,117.336,4,48,0,瑶海区
31.6842,120.288,3,49,0,堰桥
30.8811,117.7442,20,32,0,市第九中学
30.3515,112.2068,5,47,0,市委党校
29.565,106.5469,19,34,0,上清寺(启用170928)
25.8333,114.9322,1,51,0,市图书馆
25.046503,121.507972,8,44,0,Wanhua
23.3892,104.2319,3,49,0,市便民服务中心
22.5931,113.0819,1,52,0,东湖
22.605386,120.307564,20,32,0,Qianzhen
-27.4848,153.032,2,19,0,South Brisbane
61.11288,10.46497,2,48,0,Bankplassen
52.409309,12.548376,2,50,0,DEBB049
51.518167,0.439548,1,51,0,Stanford-le-Hope Roadside
51.6031,4.78102,7,45,0,Breda-Bastenakenstraat
50.2793750793217,3.97691362801985,1,51,0,FR06007
49.9579277038574,14.0583000183105,3,48,0,CZ0SBER
50.2538,127.4143,3,49,0,地震局　
49.8391876220703,18.2636890411377,4,48,0,CZ0TOFF
44.7866,10.3365,1,50,0,MONTEBELLO
44.706123,-93.285803,1,50,1,Lakeville - Near Roa
44.9653,-93.2551,2,49,1,Minneapolis-Near Roa
43.322554,21.919025,1,39,0,RS0033A
43.4677799994639,-3.79028,6,31,0,ES1529A
42.9061,129.5042,1,51,0,延边医院
41.886018,12.541614,4,48,0,Preneste
41.906358,12.447596,6,46,0,Cipro
41.7511,86.1461,2,50,0,孔雀公园
41.6205555494667,-4.74666666,13,33,0,ES1632A
40.4658333294697,-3.68833333,5,44,0,ES1940A
39.746,98.509,6,46,0,仓门街子站
39.5986,109.7736,17,35,0,康泽苑
39.9934,116.315,5,47,0,海淀区万柳
38.0929299994783,-3.78392,2,47,0,ES1253A
37.5550199994808,-6.03616,2,46,0,ES1860A
36.5975,-119.5036,2,50,0,Parlier
36.522829999486,-6.22517,2,46,0,ES1516A
36.9580999994837,-2.1592,2,47,0,ES2066A
35.4894,112.8664,11,41,0,技术学院
34.2749,108.882,4,48,0,高压开关厂
34.7745,117.5852,1,51,0,峄城区政府
32.08386,34.78191,1,0,0,תחנה:אחוזה תחבורתית
32.4285,105.8624,1,51,0,监测站
31.3264,120.596,18,34,0,轧钢厂
31.2703,120.613,2,50,0,吴中区
29.7292,115.988,7,45,0,西园
28.6425,115.892,6,46,0,象湖
26.6564,119.5228,2,39,0,宁德一中(20190319启用)
23.1036,109.5683,7,45,0,荷城子站
22.313333333333333,114.22472222222223,22,30,0,Kwun Tong
21.5233,109.1778,5,47,0,北海工业园
-27.6125,153.136,2,19,0,Springwood
60.1696399995371,24.93924,9,43,0,FI00564
53.560632,9.957236,13,39,0,DEHH026
53.385636,-6.369934,6,43,0,IE0131A
53.40495,-1.455815,6,40,0,Sheffield Barnsley Road
52.6541,6.01757,5,47,0,Barsbeek-De Veenen
52.0771,4.28919,11,41,0,Den Haag-Rebecquestraat
52.005624,8.552804,1,51,0,DENW200
51.2545736228328,3.3625358887016,2,46,0,BETN012
51.209663,4.431821,2,46,0,BETR801
51.252103,4.491362,3,45,0,BETR811
50.877317,12.07471,1,51,0,DETH009
50.725083,-3.532465,14,35,0,Exeter Roadside
50.1110801696777,14.5030956268311,21,31,0,CZ0AVYN
46.5888,131.1572,9,43,0,苗圃
45.533406631012,4.62394317771262,19,33,0,FR29429
45.1583816929606,5.70376306498849,22,30,0,FR15039
44.5462,129.6386,3,49,0,第一中学
43.302777769464,-2.97722222,2,49,0,ES0110A
41.9419,126.4078,2,50,0,环保局
41.750599,-109.789703,13,39,0,Moxa Arch
40.9923,113.1306,3,49,0,集宁新区
38.9138199994749,1.41426,4,45,0,ES1246A
38.9932299994746,1.30894,2,46,1,ES1825A
38.1398,114.5019,3,49,0,西北水源
36.61981,114.4965,2,50,0,丛台公园
36.173149999488,-5.34194,2,48,0,ES1634A
34.3622,107.2386,5,46,0,三迪小学
34.5101,109.5293,3,49,0,农科所
33.0323,107.007,1,51,0,南郑大河坎水厂
32.105,118.907,2,50,0,仙林大学城
32.3942,119.4686,3,49,0,广陵建设局(启用180626)
32.0005,120.86,3,49,0,虹桥
31.7308,113.3983,1,51,0,市立交桥水厂
29.9816,103.0001,2,50,0,川农大
30.3122,112.2747,4,48,0,管委会(启用181220)
29.2786,117.1983,2,50,0,兽医站
28.3586,112.9958,2,50,0,沙坪
28.5027617395488,-13.85369942,20,17,0,ES1866A
28.090119999553,-17.1181,5,14,0,ES2053A
26.4364,111.5992,2,50,0,永州市环保局
25.7759,113.0348,15,37,0,市环保局
23.8822,100.0869,1,51,0,市环保局
23.2775,116.7258,4,48,0,濠江子站
19.6582,-99.0965,2,22,0,Villa de las Flores
19.3502,-99.1571,1,23,0,Santiago Acahualtepe
19.4525,-99.086,1,23,0,FES Aragon
13.550478,100.264254,4,48,0,Maha Chai, Mueang
55.943197,-4.55973,1,51,0,Dumbarton Roadside
55.6319829648528,12.4633160834027,1,51,0,DK0057A
53.535958,9.84408,5,47,0,DEHH072
51.1246905122968,3.73950422044193,1,47,0,BETR731
50.9130204234224,4.51218434619029,2,46,0,BELSZ02
51.1702980388321,4.34100506456284,1,48,0,BELHB23
50.9145761375644,4.50418332331232,1,48,0,BELSZ01
50.101494,8.784892,1,51,0,DEHE116
48.3996394541087,-4.46723207639797,3,49,0,FR19014
48.3863972226844,-4.48681534959177,3,49,0,FR19012
47.7574645001881,7.34729375935504,1,51,0,FR16057
46.0703,122.0506,3,49,0,胜华新制药厂
45.7667,126.635,6,46,0,道外承德广场
45.6842,126.6206,6,46,0,省农科院
43.4605599994638,-3.80861,8,33,0,ES1580A
43.4044399994639,-3.84194,5,35,0,ES1576A
41.8828,123.9169,1,51,0,顺城区
40.6532,109.8756,2,50,0,市环境监测站
40.8144,111.608,1,51,0,糖厂
38.973888889,121.61194444,7,45,0,甘井子
36.2087899994878,-5.39138,3,46,0,ES1169A
35.4039,116.5546,2,50,0,电化厂
34.1546,108.906,1,51,0,长安区
30.63,104.1113889,6,46,0,沙河铺
30.698,111.2992,3,49,0,白龙岗
30.696,111.268,2,50,0,点军区
30.9414,117.7806,23,29,0,市新民污水厂
30.4183,120.301,2,50,0,临平镇
28.76611,104.6225,1,51,0,市委
28.7867,104.6061,5,47,0,宜宾四中
28.2597,112.9792,2,50,0,伍家岭
28.0077379995539,-16.655913,8,29,0,ES1768A
28.1113729995528,-16.471625,1,36,0,ES1769A
25.0836,102.728,3,49,0,龙泉镇
23.1886,112.863,1,51,0,三水云东海
22.4853,113.4411,2,50,0,长江旅游区
22.0019,100.7939,4,48,0,景洪市江南
20.0356,110.33,6,46,0,龙华路环保局宿舍
6.2755637,-75.5882874,1,51,0,MED-ITMR - Institucion Universitaria ITM Robledo
53.681993,9.997256,2,50,0,DESH030
51.496165,11.979064,3,49,0,DEST050
51.867471,12.59827,3,49,0,DEST092
50.9453592417478,3.15240159047001,2,46,0,BETM705
50.613413,5.570223,1,47,0,BETR222
50.09423828125,14.4420490264893,6,46,0,CZ0AKAL
48.578178,7.802317,2,50,0,DEBW022
48.52023,9.05802,1,51,0,DEBW136
45.8167,126.561,3,49,0,松北商大
44.8425,11.6131,10,41,0,ISONZO
45.1642,124.8528,3,48,0,江北
42.7186,-109.7531,7,45,0,Boulder
41.7128,86.2381,3,49,0,经济开发区
42.0228,121.6722,1,51,0,东苑
41.7666666594664,-2.46666666,11,35,0,ES1643A
39.6719,106.8219,13,39,0,聚英学校
37.8873,112.522,3,49,0,尖草坪
37.9854,112.549,2,50,0,南寨
38.0524,114.5214,1,50,0,人民会堂
36.1753799994879,-5.48083,1,49,0,ES0712A
35.4234,119.5198,2,50,0,市政府广场
34.802,113.564,5,47,0,供水公司
32.1342,114.0681,3,49,0,市酿酒公司
31.5848,120.354,7,45,0,东亭
31.2994,120.543,2,50,0,苏州新区
30.649961,76.331442,3,25,0,RIMT University, Mandi Gobindgarh - PPCB
30.4133,114.8131,1,51,0,凡口开发区
30.2043,114.8949,3,49,0,铁山
29.4251,113.1493,5,47,0,城陵矶
28.4706914,77.1099364,8,21,0,Aya Nagar, Delhi - IMD
28.6316945,77.2494387,1,28,0,ITO, Delhi - CPCB
28.5918245,77.2273074,3,26,0,Lodhi Road, Delhi - IMD
28.7256504,77.2011573,3,24,0,Burari Crossing, Delhi - IMD
26.2081,111.6217,4,48,0,零陵南津渡
25.0311,117.0151,10,42,0,龙岩学院
23.7233,114.6892,1,51,0,老城
22.624758,75.675238,1,31,0,Sector-2 Industrial Area, Pithampur - MPPCB
21.6669,110.9067,9,43,0,健康路
13.67,79.35,1,31,0,Tirumala, Tirupati - APPCB
12.951913,77.539784,4,28,0,Bapuji Nagar, Bengaluru - KSPCB
12.9099161,80.1076538,2,30,0,Alandur Bus Depot, Chennai - CPCB
-27.5358,152.993,1,20,0,Rocklea
-34.0666667,150.7952778,1,51,0,Campbelltown West
53.50793,9.990569,1,51,0,DEHH059
53.523262,10.021227,4,48,0,DEHH015
52.489451,13.430844,3,49,0,DEBE034
51.4074,5.39333,6,46,0,Veldhoven-Europalaan
50.8148738703176,3.32249431903728,4,44,0,BETN052
50.9775413785115,4.83761801569861,6,43,0,BETN035
50.5027163414413,4.98842295409252,2,47,0,BETN073
49.869422,9.171544,24,28,0,DEBY004
49.790526,9.947654,15,37,0,DEBY119
49.44406,10.325,6,46,0,DEBY124
49.6363812210033,-1.62666931648363,5,47,0,FR21035
48.397079,10.008293,23,29,0,DEBY052
47.2753,130.261,1,51,0,斯达机电
43.4569,87.4651,2,50,0,培训基地
43.5503059994638,-5.89886,2,48,0,ES0879A
43.1533299994642,-4.25306,1,36,0,ES1531A
42.430801,-83.000801,5,31,0,DETROIT - E 7 MILE
41.2864,123.7669,2,50,0,东明
40.0844,113.2711,15,37,0,教育学院
39.6407,118.1853,1,51,0,物资局
39.422272,-75.0252,3,49,0,Millville
38.8416,115.4612,6,46,0,地表水厂
36.8088,118.0482,5,47,0,人民公园
37.0046999994835,-1.9344,2,47,0,ES2067A
35.94,104.148,1,51,0,榆中兰大校区(对照点)
36.2038799994878,-5.38371,1,49,0,ES1074A
33.778315,-84.391418,3,43,6,NR-Georgia Tech
33.6906,-84.2731,3,43,0,South DeKalb
32.0564,112.1392,7,45,0,樊城新华路
30.1480566,77.2893471,1,30,0,Gobind Pura, Yamuna Nagar - HSPCB
29.7534,116.0726,3,49,0,石化总厂
28.58028,77.233829,12,20,0,Jawaharlal Nehru Stadium, Delhi - DPCC
28.639645,77.146262,1,28,0,Pusa, Delhi - DPCC
28.6844,115.931,3,49,0,省站
27.9153,113.0048,17,35,0,昭山
26.2378,117.6028,7,45,0,三元区政府
26.0542,119.389,4,48,0,鼓山
24.9424,118.6663,5,47,0,万安
23.2536,116.4019,2,50,0,潮南子站
22.6411,110.1675,1,51,0,市监测站
22.0225,100.8017,5,47,0,景洪市江北
18.5011743,73.8165527,1,28,0,Karve Road, Pune - MPCB
13.807158152425,100.50631878903,4,37,0,Bang Kruai, Bang Kruai
63.419239,10.395945,3,47,0,Elgeseter
57.15736,-2.094278,2,50,0,Aberdeen
55.7249999995007,24.36557,1,51,0,LT00012
53.78175,12.175512,4,47,0,DEMV019
54.31923,13.08101,1,50,0,DEMV025
52.3748,4.86032,1,51,0,Amsterdam-Jan van Galenstraat
50.856578,4.425704,5,43,0,BETWOL1
50.825128,4.384719,2,46,0,BETR002
50.849665,4.33382,2,46,0,BETR001
50.8508105371924,4.34858747427388,2,46,0,BETB004
50.895101,4.392718,2,46,0,BETMEU1
50.8835598117798,4.38296325180234,3,45,0,BETN043
50.796632,4.358539,2,46,0,BETR012
49.0669441194687,18.92194748,1,51,0,SK0039A
43.309444439464,-2.01111111,1,50,0,ES1697A
42.2725,118.9572,4,48,0,哈达街
42.2191666594655,-8.74194444,5,45,0,ES1137A
42.3361099994653,-3.63611,3,43,0,ES1443A
40.7378,107.3715,3,49,0,市环保大楼
40.6288,109.8654,8,44,0,惠龙物流
38.8632,115.493,3,49,0,游泳馆
38.885,121.56388889,1,51,0,星海三站
38.2478,109.7336,2,50,0,环保监测大楼
37.4967,121.2611,7,45,0,福山环保局
36.2338599994876,-5.6635,1,49,0,ES1648A
35.303,113.883,2,50,0,环保东院
34.9817,118.2764,3,49,0,新光毛纺厂
35.3313,-119,4,48,0,Bakersfield-Muni
34.6258,112.4275,2,50,0,市委新办公区
34.719,113.734,10,42,0,四十七中
33.5981,119.036,1,51,0,钵池山
31.4189,118.37,4,48,0,科创中心
30.6578,104.054,7,45,0,君平街
27.8094,99.7136,3,49,0,质量技术监督局（20180930启用）
25.1645,121.449239,2,50,0,Tamsui
24.5183,114.6622,14,20,0,漳州党校(20190503启用)
24.432133,118.312256,1,51,0,Kinmen
22.7875,108.301,2,50,0,振宁花园
19.4684,-99.1697,3,8,0,Camarones
19.3653,-99.2917,3,13,0,Cuajimalpa
14.6137845116798,-61.063520427195,2,31,0,FR39010
14.4688323314949,-60.9274256616508,2,50,0,FR39014
13.532555,99.814873,10,41,0,Na Mueang, Mueang
59.90608,10.61195,2,50,0,Eilif Dues vei
54.17133,12.080003,2,49,0,DEMV021
53.2178,6.5789,2,50,0,Groningen-Europaweg
53.518868,-1.138073,3,49,0,Doncaster A630 Cleveland Street
51.9745,4.9233,5,47,0,Cabauw-Wielsekade
51.519639,7.464347,2,50,0,DENW101
51.1761001044641,3.86992817275221,3,46,0,BETE704
50.84574,12.903367,1,51,0,DESN083
50.584108,8.668579,2,50,0,DEHE061
49.351143,8.423005,1,51,0,DERP053
49.5333,8.3553,1,51,0,DERP026
49.869457,8.653745,1,51,0,DEHE040
48.048656,8.463597,1,51,0,DEBW039
46.3864,-62.5828,1,45,0,SOUTHAMPTON
45.7319,126.685,1,51,0,香坊红旗大街
45.651722,-73.573896,1,53,0,Rivi��re-des-Prairies
45.0488,9.6933,1,50,0,GIORDANI-FARNESE
45.1425,-93.2139,1,50,0,Blaine
44.216,12.0575,2,49,0,ROMA
43.8298582669199,4.36198545771053,2,49,0,FR08616
43.320555549464,-3.07388888,8,43,0,ES0588A
42.6978893718847,9.44641403321565,3,49,0,FR41002
41.206667,-8.552778,14,36,0,PT01023
40.635556,-8.646667,1,51,0,PT02017
39.8673,116.366,1,51,0,万寿西宫
37.51,111.1283333,1,51,0,马茂庄小学
37.5072,122.1067,4,48,0,市监测站
37.197,122.038,2,50,0,文登市环保局
36.1542,113.1097,3,49,0,清华站
35.1147,111.0414,2,50,0,空港新区
35.248889,115.42277,3,49,0,市气象局
34.1978,108.985,8,44,0,曲江文化产业集团
34.6231,112.3844,1,51,0,开发区管委会
34.7545,113.681,2,30,0,烟厂
30.7636,106.0642,1,51,0,嘉陵区环保局
30.2692,120.19,3,49,0,浙江农大
27.8094,102.3419,4,48,0,青龙寺
26.5697,106.7164,8,44,0,新华路
24.805619,120.972075,2,50,0,Hsinchu
25.07857,121.365703,1,51,0,Linkou
23.63444,113.0472,5,47,0,技师学院
23.475,111.3178,4,48,0,云盖小学
23.2539,116.6092,2,50,0,潮阳子站
22.733667,120.328289,1,51,0,Nanzi
22.755358,121.15045,1,50,0,Taitung
19.2464,-99.01,4,20,0,Tlahuac
19.4246,-99.1195,11,13,0,Merced
19.5259,-99.0824,2,21,0,Xalostoc
14.6780998386226,-60.9391037603444,4,47,0,FR39016
61.1283799995465,28.83776,1,51,0,FI00273
61.0557599995458,28.18431,1,51,0,FI00606
54.8951279994952,23.986222,4,48,0,LT00041
53.077151,8.81578,6,46,0,DEHB001
52.3597,4.86621,2,50,0,Amsterdam-Vondelpark
47.3386,123.9305,2,50,0,中心广场
43.925368232751,4.26581182339269,2,50,0,FR08617
42.9519444394644,-3.47527777,1,45,0,ES1987A
41.842778,-111.85194,1,43,8,Smithfield
42.2223999994655,-8.711082,1,48,0,ES2063A
41.3938899994672,0.73472,9,41,0,ES0014R
41.4754091344671,1.921203402,4,47,0,ES1126A
39.6572,106.7931,2,50,0,中海勃湾学校
38.802222,-9.182222,7,41,0,PT03097
38.49494,106.1024,4,48,0,文昌北街
37.8531,113.6292,9,43,0,白羊墅
37.6888888794802,-1.70111111,1,49,0,ES1569A
36.7278499994849,-4.56095,2,44,0,ES1897A
35.5051,112.85,2,50,0,自来水公司
32.9689,112.5481,3,30,0,理工学院
31.9017,119.9167,3,37,0,安家
30.5514,114.2511,5,47,0,汉阳月湖
30.3119,120.12,1,51,0,和睦小学
28.2264,117.0222,1,51,0,体育馆
28.3767129995501,-16.361928,13,24,0,ES1756A
27.9958,113.1817,3,48,0,云田中学
26.5928,101.5769,6,46,0,河门口
26.5939,104.89,13,39,0,水钢
26.2625,117.6211,7,45,0,三钢
24.299,109.4221,3,49,0,市四中
23.5292,116.4094,10,42,0,渔湖
21.6533,110.9294,2,50,0,茂石化七小
19.4604,-98.9028,7,14,0,Montecillo
14.6005714623464,-61.0857088147127,1,51,0,FR39017
12.97378,101.212844,4,48,0,Pluak Daeng, Pluak Daeng
-33.6183333,150.7458333,5,47,0,Richmond
59.912001,10.767426,2,23,0,Åkebergveien
52.2966,4.51082,9,43,0,De Zilk-Vogelaarsdreef
51.1771308881904,4.41794863777773,4,45,0,BETR817
45.8003388883523,15.9740722222222,1,50,1,HR0007A
45.7148444091466,16.0682553185743,1,50,0,HR0026A
42.542777769465,-6.58472222,12,31,0,ES1790A
42.8547222194646,-2.68055555,7,44,0,ES1502A
41.85772,12.568665,2,50,0,Cinecitta
42.0194444394659,-4.53833333,1,45,0,ES1922A
41.3864139334672,2.187416735,3,48,0,ES1679A
41.4439835604671,2.237875306,5,46,0,ES1892A
41.6141699994667,-4.77222,11,35,0,ES2042A
40.6663899994691,-3.77222,3,47,0,ES1613A
39.5633199994725,2.62055,2,32,0,ES1604A
39.6776599994721,2.68665,4,35,0,ES1827A
39.3514,112.44,1,51,0,平朔
38.4727799994767,-6.92361,10,38,0,ES0011R
36.8198,118.3092,3,49,0,莆田园
36.78538,-119.77321,6,30,0,Fresno - Garland
36.7944899994846,-5.53162,1,49,0,ES1822A
36.9230999994839,-2.46322,2,48,0,ES1785A
35.4934,112.835,2,50,0,白云商贸
35.356615,-119.062613,1,35,0,Bakersfield - Califo
34.3469,106.005,2,50,0,仙人崖
34.378,108.869,5,47,0,草滩
34.6692,112.3628,2,50,0,中信二小
31.92,120.268,6,46,0,虹桥邮政
31.1654,121.412,2,50,0,徐汇上师大
30.6103,114.4272,10,42,0,青山钢花
29.6995,116.0257,3,49,0,外国语学校（20181128启用）
30.0203,122.122,3,49,0,定海檀枫
28.4630099995492,-16.26488,3,24,0,ES2021A
28.4617879995492,-16.27662,2,25,0,ES1976A
28.4510219995493,-16.277692,9,18,0,ES1759A
28.4581599995492,-16.278776,4,23,0,ES1975A
19.529,-99.2045,5,19,0,Tlalnepantla
-21.2770946462702,55.403056158901,4,47,0,FR38098
-34.4763889,150.8175,1,51,0,Kembla Grange
51.896982,11.057442,1,51,0,DEST044
50.017078,8.216498,2,50,0,DERP007
50.2391,127.5044,2,50,0,党校
47.3709449794651,8.52354145,10,28,0,CH0021A
43.275634999464,-5.59599,5,45,0,ES1433A
42.8758333294645,-8.55916666,1,48,0,ES1868A
41.8336,123.542,2,50,0,东陵路
41.7381,125.9486,2,50,0,铁路
41.2022318394677,1.672200024,1,50,0,ES1773A
41.1042,121.835,12,40,0,新生街道
41.1442,123.0485,5,47,0,太平
40.3585299994699,-3.54414,8,41,0,ES1807A
40.5709899994693,-3.26461,3,47,0,ES1536A
40.6298399994692,-3.17159,6,45,0,ES1537A
38.9792799994747,-1.85213,2,48,0,ES1535A
38.1147222194782,-1.86861111,1,49,0,ES1882A
37.4664,116.3061,1,51,0,儿童乐园
36.0211,106.2375,3,49,0,新区
36.1820999994879,-5.41141,3,46,0,ES0893A
35.2375,115.474722,1,51,0,市政协
35.27,115.455,2,50,0,菏泽学院
31.8934,102.2402,2,50,0,马师校
30.475,105.5956,3,49,0,美宁食品公司
30.1808,120.088,3,49,0,云栖
28.9664,118.871,9,43,0,实验学校
27.8244,113.135,4,48,0,天台山庄
28.0473319995535,-16.536049,14,23,0,ES1762A
28.1112659995528,-15.520924,1,48,0,ES1952A
25.9061,113.0073,7,45,0,马头岭
25.0441,101.5482,3,49,0,州环境监测站
23.105,113.261,1,51,0,市五中
23.115097,120.297142,3,49,0,Shanhua
54.161555,12.174105,1,50,0,DEMV007
51.9271,4.46134,2,50,0,Rotterdam Noord -Statenweg
51.932,4.22802,1,51,0,Maassluis-Kwartellaan
51.5184,5.14845,3,49,0,Biest Houtakker-Biestsestraat
49.89833,10.887686,1,51,0,DEBY009
45.2636264736602,1.76388697613289,1,23,0,FR35023
42.38599,-83.266319,1,51,0,Eliza Howell- Roadwa
41.73,13.338333,5,47,0,Alatri
41.4038818504672,2.204522594,5,46,0,ES0691A
40.4783333294696,-3.71138888,1,48,0,ES1521A
38.4291699994769,-6.395,1,46,0,ES1820A
37.4822,121.4478,3,49,0,莱山环保局
36.3083,120.1964,1,51,0,黄岛区子站
35.1764,113.2464,2,48,0,高新区政府
34.2969,108.6594,3,49,0,两寺渡
34.407,115.6386,1,52,0,睢阳区环保局
32.9673,117.3536,6,46,0,淮上区政府
31.2797,107.5272,21,31,0,达州职业技术学院
30.51197222,117.0331111,5,47,0,马山宾馆
30.8244,120.07,8,44,0,城西水厂
30.0874,103.8416,2,50,0,气象局
28.4983799995488,-13.86083,5,32,0,ES1978A
27.5444,109.9453,2,50,0,河西地税局
27.955133,-82.469532,1,51,0,MUNRO STREET
25.0405,102.722,2,50,0,东风东路
25.020608,121.529556,1,51,0,Guting
18.564721437399,99.011144750057,7,42,0,Wiang Yong, Mueang
13.588554,101.286359,1,51,0,Wang Yen, Plaeng Yao
58.951877,5.721875,1,48,0,Schancheholen
56.010319,-3.704399,1,51,0,Grangemouth
53.63074,10.110595,1,51,0,DEHH047
54.17729,12.09792,2,49,0,DEMV031
51.8911,4.48069,1,51,0,Rotterdam Zuid-Pleinweg
51.2082294722138,4.42155925106527,1,48,0,BETR805
50.431398,7.460812,1,51,0,DERP046
50.320611,11.897492,1,51,0,DEBY020
46.8267,130.3961,1,51,0,发电厂
43.346389999464,-4.06417,1,39,0,ES1038A
42.6347199994649,-7.70472,6,43,0,ES0016R
42.575277769465,-5.56638888,2,44,0,ES1988A
42.215859,20.741556,4,44,0,Prizren
41.3214952094674,2.09772526,4,47,0,ES1929A
40.7866,111.551,1,51,0,工大金川校区
40.4477799994697,-3.86722,3,46,0,ES1612A
40.3980555494698,-3.68666666,1,48,0,ES1937A
39.6969,106.8089,2,50,0,市林业局
38.74643,-121.26498,1,35,0,Roseville - N.Sunris
37.8926099994792,-4.76234,1,49,0,ES1799A
36.2403,120.4001,1,51,0,城阳区子站
35.4178,119.4641,4,48,0,监测站
34.493,109.4636,1,51,0,体育馆
31.909,120.237,5,47,0,五星公园
31.874,120.526,4,46,0,张家港市监测站
28.646233,77.358075,12,17,0,Indirapuram, Ghaziabad - UPPCB
27.8953,102.2311,3,49,0,长安
26.131256,-80.167847,2,45,4,Near Road
24.6967,108.1009,1,51,0,市疾控中心
24.632203,121.792928,1,51,0,Dongshan
23.7569,114.6778,2,50,0,源西
23.711853,120.544994,1,51,0,Douliu
22.5111,113.4075,1,51,0,紫马岭
19.4824,-99.2435,12,12,0,FES Acatlán
19.0863,72.8888,9,19,0,Kurla, Mumbai - MPCB
13.708041021603,100.54734529366,2,26,0,Chong Nonsi, Yannawa
53.819972,-1.576361,2,50,0,Leeds Headingley Kerbside
52.3813,4.84523,4,48,0,Amsterdam-Einsteinweg
51.0406894198246,3.73497147968531,2,46,0,BETR702
50.3585299553631,3.50803796547367,1,51,0,FR06001
45.9819,126.6106,8,44,0,呼兰师专
45.1587617596045,1.53722406364385,1,51,0,FR35004
44.52361111111111,18.60027777777778,2,27,0,Bukinje
44.53330277777778,18.534891666666667,1,51,0,Lukavac
43.6755544389705,4.62861441719004,1,51,0,FR02022
41.978329999466,21.47,3,49,0,MK0031A
41.492802,-112.0187,1,25,0,Brigham City
40.6821,109.8538,7,45,0,青山宾馆
40.3947222194698,-3.73194444,2,47,0,ES0126A
36.1862099994879,-5.38081,1,48,0,ES0557A
31.93,120.94,2,50,0,星湖花园
28.611281,77.237738,2,30,0,Major Dhyan Chand National Stadium, Delhi - DPCC
27.8614,112.9433,7,45,0,板塘
27.7725973595564,-15.54188043,3,34,0,ES1742A
25.7325,-80.162201,1,47,0,Rosenstiel
25.0119,102.749,9,43,0,官渡区博物馆（180930启用）
23.0916,113.348,2,50,0,广东商学院
22.757506,120.305689,1,51,0,Qiaotou
21.7631,108.3511,2,50,0,防城镇政府
19.3251,-99.2041,1,22,0,Pedregal
19.6355,-98.912,1,10,0,Acolman
19.1135051,73.008978,1,26,0,Mahape, Navi Mumbai - MPCB
19.047,72.8746,20,7,0,Sion, Mumbai - MPCB
60.9878099995451,25.64954,1,50,0,FI00066
53.562455,8.569405,3,49,0,DEHB005
53.24696,10.4565,1,51,0,DENI062
51.55107,9.94976,2,50,0,DENI042
51.70884,9.55462,2,50,0,DENI077
50.930328,8.191932,8,44,0,DENW065
50.3765869140625,13.3276224136353,1,51,0,CZ0UTUS
49.7222599994706,6.30533,1,51,0,LU0105A
49.7318099994707,5.84714,1,51,0,LU0104A
49.6717910766602,18.3510704040527,1,51,0,CZ0TFMI
47.0911102294647,17.90112114,1,51,0,HU0034A
47.5419439994654,19.146122,1,51,0,HU0042A
45.5422,126.979,6,46,0,阿城会宁
45.8194,130.8625,9,43,0,新建　
43.0119399994643,-4.13556,1,40,0,ES1530A
41.8594,123.9,1,26,0,新抚区
42.312158,-83.091943,1,51,0,DET POLICE 4TH
41.5672,120.4486,1,51,0,河畔小区
40.7514,120.8392,1,51,0,化工街
40.6511,122.215,1,51,0,镜湖西路
39.76168,-121.84047,3,33,0,Chico -  East
36.6164,114.5426,2,50,0,东污水处理厂
36.8041,117.8512,3,49,0,三金集团
33.739,113.292,1,51,0,规划设计院
34.100132,-117.491982,6,46,0,Fontana - Arrow High
32.0903,112.2106,5,47,0,襄州航空路
31.0325454,76.5623046,4,28,0,Ratanpura, Rupnagar - Ambuja Cements
28.3372199995505,-16.39972,1,47,0,ES1920A
28.0263169995537,-15.414657,2,35,0,ES2004A
24.8978,118.5972,3,49,0,津头埔
25.037972,121.4325,1,51,0,Xinzhuang
23.221714,72.654328,2,29,0,Sector-10, Gandhinagar - GPCB
22.673081,120.488033,3,49,0,Pingtung
22.523108,120.561175,2,50,0,Chaozhou
19.304501021455,97.971525255487,3,46,3,Chong Kham, Mueang
18.247769049494,99.766891808156,17,35,0,Sop Pat, Mae Mo
55.6743033303032,12.571113917497,2,50,0,DK0034A
54.353728,-6.654558,11,41,0,Armagh Roadside
53.02821,-2.175133,1,51,0,Stoke-on-Trent Centre
51.4442,5.44483,4,48,0,Eindhoven-Noordbrabantlaan
51.21311,6.782565,1,51,0,DENW082
50.1953620910644,15.8463764190674,1,51,0,CZ0HHKB
50.2486,127.4961,3,49,0,交通局　
48.8864130722716,6.09361393199068,2,50,0,FR01016
46.0347,124.8354,5,47,0,大同区
43.3824999994639,-3.22056,2,39,0,ES1578A
43.299166659464,-2.98722222,8,43,0,ES1712A
41.6663888794666,-4.715,4,42,0,ES1596A
41.4256209034672,2.222244805,8,43,0,ES1148A
40.999444,-8.623333,19,33,0,PT01054
40.4941666594695,-3.66027777,1,48,0,ES1944A
39.8745,116.434,3,49,0,天坛
39.9716,116.473,1,51,0,农展馆
38.9938899994746,-3.93778,4,46,0,ES1857A
35.5294,106.7039,2,50,0,博物馆
34.8019,113.675,1,51,0,银行学校
32.395,111.0419,4,48,0,武当山
31.321907,75.578914,7,25,0,Civil Line, Jalandhar - PPCB
31.3839,118.4022,1,51,0,五七二零厂
31.6928,118.48,1,49,0,马钢动力厂
31.3008,121.467,2,50,0,虹口
28.194909,76.862296,3,29,0,RIICO Ind. Area III, Bhiwadi - RSPCB
28.5447608,77.3231257,12,17,0,Sector - 125, Noida - UPPCB
27.5578,109.9972,5,47,0,监测楼
25.785472,-80.284206,1,47,0,Perimeter
25.1035,117.0216,2,50,0,龙岩市监测站
22.55664,88.342674,1,27,0,Fort William, Kolkata - WBPCB
22.8322,100.9817,2,50,0,普洱第二中学
22.4795,120.41175,1,51,0,Linyuan
21.4689,111.0286,7,45,0,市环保局茂港分局
19.192056,72.9585188,1,30,0,Pimpleshwar Mandir, Thane - MPCB
17.5316895,78.218939,2,27,0,IDA Pashamylaram, Hyderabad - TSPCB
13.907826934415,100.53565359343,2,36,0,Bang Phut, Pak Kret
12.917348,77.622813,4,28,0,Silk Board, Bengaluru - KSPCB
12.735201666146,101.13567139733,2,50,0,Huai Pong, Mueang
53.87453,10.664881,2,50,0,DESH055
52.3721,4.9044,2,50,0,Amsterdam-Oude Schans
52.447697,13.64705,10,42,0,DEBE056
49.851338603768,3.28399813361426,1,51,0,FR18042
43.9469,87.4754,1,51,0,新疆农科院农场
41.5776268914668,1.625893365,2,4,0,ES1135A
41.4507693384671,1.974887306,8,43,0,ES0971A
41.512675807467,2.125383709,1,50,0,ES1551A
41.1196,123.044,2,50,0,深沟寺
41.301288,-72.902685,1,26,0,New Haven - Criscuol
40.8367,114.8985,5,47,0,人民公园
39.9425,116.361,2,50,0,官园
40.0625,124.3303,1,51,0,江湾东路
37.177,119.941,1,2,0,莱州环保局
37.3419,-77.260803,1,51,0,SHIRLEY PLANTATION
36.0543,120.2992,1,51,0,市南区西部子站
36.1904799994879,-5.43576,1,47,0,ES1076A
31.9438,117.266,5,47,0,庐阳区
32.4867,119.9,4,48,0,公园路
32.4639,119.888,3,49,0,留学生创业园
29.1242,110.4697,5,47,0,电业局
29.2647,117.1558,2,50,0,台达陶瓷
28.6811736,77.3025234,6,23,0,IHBAS, Dilshad Garden, Delhi - CPCB
28.3934079995499,-16.3581,3,32,0,ES1772A
28.38015999955,-16.36833,2,35,0,ES2022A
22.317777777777778,114.25944444444444,1,51,0,Tseung Kwan O
19.10078,72.87462,8,20,0,Chhatrapati Shivaji Intl. Airport (T2), Mumbai - MPCB
12.9756843,77.5660749,18,11,0,City Railway Station, Bengaluru - KSPCB
55.945589,-3.182186,2,50,0,Edinburgh St Leonards
53.80489,-3.007175,2,48,0,Blackpool Marton
52.150775,9.950223,3,20,0,DENI066
50.920265,-1.463484,1,51,0,Southampton A33
47.47706,11.05722,2,50,0,DEBY196
43.5625273554356,7.00721854224592,1,51,0,FR24009
43.4797361162024,-1.48805926814399,5,46,0,FR31016
41.987439999466,21.6525,1,49,0,MK0045A
42.0186,121.6561,1,51,0,长青街
41.7561,123.535,1,51,0,浑南东路
41.6561111094667,-4.73388888,2,44,0,ES1636A
41.3921574584672,2.009802277,5,46,0,ES0694A
41.4260771994671,2.147992032,3,48,0,ES1856A
41.492082862467,2.042497085,1,50,0,ES1684A
41.2075,-8.338056,4,48,0,PT01043
40.67025,-74.126083,1,51,0,Bayonne
39.7153,76.1861,3,49,0,市人民政府
39.9585599994712,-4.8457,1,49,0,ES1859A
36.7697199994847,-2.81097,4,45,0,ES1549A
36.9499999994838,-1.96148,1,48,0,ES1835A
33.95507,-118.43046,2,50,0,LAX-Hastings
32.8603,115.8556,3,49,0,开发区
31.5631,120.245,2,50,0,荣巷
30.736056,76.209694,3,29,0,Kalal Majra, Khanna - PPCB
31.0386,112.2211,3,49,0,石化一小
30.7478,120.726,1,51,0,嘉兴学院
28.806223,76.141105,2,29,0,H.B. Colony, Bhiwani - HSPCB
28.7500499,77.1112615,6,23,0,DTU, Delhi - CPCB
28.1308,112.8908,1,51,0,湖南中医药大学
28.7442,115.813,3,49,0,林科所
26.9258,112.6194,1,51,0,衡阳化工总厂
25.8179,113.0119,2,50,0,兴隆步行街
25.4552,119.0018,2,50,0,莆田市监测站
25.035503,121.082761,1,51,0,Guanyin
23.0672,109.6042,1,51,0,江南子站　
23.0944,109.6014,2,50,0,贵城子站
22.285,114.14444444444445,1,51,0,Central/Western
19.25292,73.142019,6,19,0,Khadakpada, Kalyan - MPCB
12.680918537711,101.27357778829,1,49,0,Tha Pradu, Mueng
12.3511441,76.6249171,4,19,0,Hebbal 1st Stage, Mysuru - KSPCB
54.8836135894951,23.8358345,2,50,0,LT00044
52.643525,13.489531,5,47,0,DEBE051
51.8674,4.35524,1,51,0,Hoogvliet-Leemkuil
51.1337166964098,5.60665921970447,4,44,0,BETN027
50.735454,-1.780888,1,51,0,Christchurch Barrack Road
47.3489,130.3172,1,51,0,东山纸板厂
43.345649999464,-5.96967,2,48,0,ES2075A
43.0641666594643,-2.49,1,50,0,ES1442A
42.097053,11.788354,4,48,0,Civ. Porto
40.7136,120.9092,1,51,0,龙港区
40.641441,-74.208366,9,43,0,Elizabeth Trailer
39.6308,118.1662,3,49,0,供销社
39.1654,117.145,2,50,0,勤俭道
38.5339,102.1725,2,50,0,新川苑
37.5211,111.1406,3,49,0,环保局
36.864,118.78,2,50,0,世纪学校
34.942872,-120.435611,1,35,0,Santa Maria - Broadw
31.1907,121.703,2,50,0,浦东川沙
28.1442,112.9956,3,49,0,雨花区环保局
26.5017,101.7453,2,50,0,仁和
24.162197,120.616917,1,51,0,Xitun
23.3594,104.2533,1,51,0,州水务局
23.0706,112.427,1,51,0,睦岗子站
22.8561,108.316,7,45,0,北湖
22.450833333333332,114.16444444444446,1,51,0,Tai Po
13.119234177302,100.91849922412,2,50,0,Thung Sukhla, Si Racha
52.2015,4.98744,3,49,0,Breukelen-Snelweg
51.9778,4.12194,4,48,0,Hoek v. Holland-Berghaven
48.7758318853958,5.16278861773887,1,47,0,FR30020
46.6590571322097,3.2493141804944,7,14,0,FR07048
45.7804142112275,3.11159346428604,11,10,0,FR07053
45.7748381342459,4.89857612637364,21,0,0,FR20069
45.9071974626627,6.84583620145384,19,2,0,FR33232
45.5828,84.8897,2,50,0,南林小区
45.3532123361459,4.80481896017008,8,10,0,FR27008
45.1806746477571,5.72005850424242,16,5,0,FR15046
42.8698,-109.8708,4,48,0,Pinedale Gaseous
41.5931,120.4439,1,51,0,西梁
38.9194,117.157,1,52,0,团泊洼(对照点)
38.3344,109.7414,2,50,0,红石峡森林公园(对照点)
37.5639,121.2514,3,49,0,开发区
36.7225,119.0586,1,51,0,潍坊七中
36.792,119.952,1,51,0,1号
36.694261,-121.623271,1,0,0,Salinas AMS
31.381,120.999,1,51,0,震川中学
30.349388,76.366642,1,24,0,Model Town, Patiala - PPCB
29.9919,120.605,1,51,0,城东开发委
29.8633,121.586,1,50,0,太古小学
22.49929,88.36917,1,27,0,Jadavpur, Kolkata - WBPCB
22.564136,120.425311,1,51,0,Daliao
14.040299305494,100.60873959621,1,49,0,Khlong Nueng, Khlong Luang
12.938539,77.5901,2,29,0,Hombegowda Nagar, Bengaluru - KSPCB
63.43293,10.41067,1,46,0,Bakke kirke
59.9181,10.5839,1,50,0,Bekkestua
53.1177,8.69506,1,51,0,DEHB013
52.3668,4.79334,2,50,0,Amsterdam-Sportpark Ookmeer (Osdorp)
48.4658,129.4942,2,50,0,汤旺河国家公园
47.676114611619,17.6497393762667,1,51,0,HU0025A
46.528,125.112,2,50,0,龙凤区
46.0802764894636,18.21112251,1,50,1,HU0029A
43.1594,124.3711,2,50,0,一商场
43.55,125.633,4,48,0,甩湾子
43.4702185970344,-1.55384289640006,9,43,0,FR31043
42.3022,123.8139,1,51,0,汇工街西
40.3241699994701,-3.87639,2,47,0,ES1568A
39.643,118.144,1,51,0,雷达站
37.95075,-121.26897,6,30,0,Stockton - Hazelton
34.7997,111.1489,2,50,0,风景区
31.6411,118.4828,1,51,0,天平服装
30.379589,76.778328,8,23,0,Patti Mehar, Ambala - HSPCB
30.6619,117.4916,2,20,0,展览馆(1900815启用)
30.2747,120.063,4,48,0,西溪
29.2313,91.7608,8,44,0,山南监测站
28.685382,77.453839,1,25,0,Sanjay Nagar, Ghaziabad - UPPCB
28.5627763,77.1180053,6,21,0,IGI Airport (T3), Delhi - IMD
27.5342,109.9792,3,49,0,市四医院
27.6231,113.8447,1,51,0,市政府车库
27.2537,111.4503,1,51,0,市罐头厂
26.470859,74.646594,1,28,0,Civil Lines,  Ajmer - RSPCB
22.969611,72.6435,1,30,0,Phase-4 GIDC, Vatva - GPCB
23.4714,116.7519,1,51,0,澄海子站
22.629801,88.352017,1,27,0,Belur Math, Howrah - WBPCB
19.3573,-99.2628,1,20,1,Santa Fe
13.1662,80.2584,2,22,0,Manali Village, Chennai - TNPCB
-20.8898566030508,55.4688128376986,1,31,0,FR38001
53.38928,-2.615358,3,46,0,Warrington
52.47609,-1.875024,1,51,0,Birmingham A4540 Roadside
51.45617,0.634889,1,51,0,Rochester Stoke
50.239694444444446,106.19277777777778,1,44,4,Сүхбаатар
47.588152,7.633271,1,51,0,DEBW023
45.7733,126.689,1,51,0,太平宏伟公园
44.53194444444444,18.654722222222222,1,51,0,BKC
43.6892619053736,7.24208307327896,1,51,0,FR24035
43.306656999464,-5.689716,2,48,0,ES0825A
43.1722222194642,-2.63583333,7,44,0,ES1490A
42.2814,118.9233,1,51,0,松山一中
41.1507788944678,1.120171923,4,47,0,ES1208A
41.3705041074673,2.114973082,2,49,0,ES0692A
40.204433,-109.35321,1,51,0,Redwash
38.6806499994758,-4.10832,1,49,0,ES1277A
37.3983099994815,-5.95165,2,48,0,ES1450A
34.10366,-117.629096,1,48,0,Upland
32.9444,117.3575,2,50,0,百货大楼
31.3946,118.3954,1,1,0,济民医院(对照点190815启用)
29.6953,77.0027,2,26,0,Sector-12, Karnal - HSPCB
29.4892,106.634,1,51,0,茶园
28.60909,77.0325413,1,28,0,NSIT Dwarka, Delhi - CPCB
28.7762,77.051074,6,23,0,Bawana, Delhi - DPCC
26.5155,106.6948,5,47,0,中院村
25.3214,119.1015,1,51,0,秀屿区政府
23.6706,116.6447,1,51,0,档案局
22.611968,88.347422,2,27,0,Ghusuri, Howrah - WBPCB
53.52418,9.68503,1,51,0,DENI063
53.579283,-2.093786,3,49,0,Shaw Crompton Way
52.494,4.60199,2,50,0,Wijk aan Zee-Burgemeester Rothestraat
50.798915604087,3.93029323760176,1,47,0,BETN051
49.7489585876465,18.6097259521484,1,51,0,CZ0TCTN
46.9510019036189,7.44087126250177,2,36,0,CH0031A
46.6219,124.8648,5,47,0,让胡路区
43.6267,122.2603,2,50,0,通辽宾馆
41.6833333294666,-4.74111111,1,44,0,ES1597A
41.1953,123.2,1,51,0,宏伟区
38.2991,116.8854,3,49,0,沧县城建局
37.2601599994822,-6.92546,3,45,0,ES1256A
34.6869,112.4831,1,51,0,河南林校
32.0197,112.155,5,47,0,襄城运动路
31.5072,104.7283,1,51,0,三水厂
31.238,121.4,2,50,0,普陀
28.5504249,77.2159377,4,25,0,Sirifort, Delhi - CPCB
28.0990499995529,-17.12051,3,46,0,ES2044A
25.2178,110.2869,2,50,0,八中
24.476666667,118.15138889,1,51,0,洪文
24.900142,121.038653,1,51,0,Hukou
24.954208,121.204981,1,51,0,Pingzhen
23.65889,116.6183,1,51,0,市政府
23.002657,72.591912,1,30,1,Maninagar, Ahmedabad - GPCB
22.5448082,88.3403691,2,27,0,Victoria, Kolkata - WBPCB
-32.2716667,150.8858333,1,51,0,Muswellbrook
59.94103,10.79803,1,51,0,Rv 4, Aker sykehus
52.28,4.77077,1,51,0,Oude Meer-Aalsmeerderdijk
48.6569370294502,6.13602339655396,2,48,0,FR30037
48.507703,9.051178,1,51,0,DEBW107
45.9096976785902,6.11824573708124,5,16,0,FR33203
44.803179,20.400152,2,38,0,RS0036A
40.9555555494683,-4.11055555,2,44,0,ES1967A
39.8337899994716,3.1443,1,50,0,ES1517A
39.8752799994714,4.31639,2,43,1,ES0006R
38.768889,-9.108056,1,49,0,PT03071
36.6106,109.5056,1,51,0,百米大道
36.799,119.976,3,49,0,2号
33.9953,113.7906,1,51,0,开发区
33.567,114.056,1,51,0,三五一五工厂
29.8006,76.4155,2,19,0,Rishi Nagar, Kaithal - HSPCB
28.2053,113.0792,2,50,0,马坡岭
26.902909,75.836853,1,28,0,Adarsh Nagar, Jaipur - RSPCB
22.7906,108.439,1,51,0,仙葫
59.13354,9.6219,3,49,0,Knarrdalstranda
53.638291,9.998009,1,51,0,DEHH033
53.56414,9.967882,1,51,0,DEHH008
53.106944,-7.196389,1,48,0,IE0111A
52.832467,13.822211,1,51,0,DEBB060
50.970024,9.80026,1,51,0,DEHE032
48.853211,11.777818,1,51,0,DEBY049
39.047911,-94.450513,1,51,0,Blue Ridge I-70
38.56844,-121.49311,6,46,0,Downtown Sacramento
37.1355599994829,-3.61925,1,46,0,ES1973A
34.7622,113.6844,4,16,0,烟厂
33.5653,114.0322,1,51,0,广电局
33.852605,-116.540965,1,51,0,Palm Springs - Fire
32.935,117.3086,1,51,0,二水厂
30.2352,115.0625,1,51,0,沈家营
28.6514781,77.1473105,3,26,0,Shadipur, Delhi - CPCB
28.4303,117.9033,1,51,0,开发区管委会
25.1328,99.1711,1,51,0,市环保局
23.7369,109.2317,5,47,0,来冶招待所
22.5687319,88.2797276,5,24,0,Padmapukur, Howrah - WBPCB
19.3832,72.8204,1,19,0,Vasai West, Mumbai - MPCB
19.10861,72.83622,1,24,0,Vile Parle West, Mumbai - MPCB
13.79263500923,100.59607755884,9,43,0,Lat Phrao Rd., Wang Thonglang
11.9266111,76.9311389,10,1,0,Urban, Chamarajanagar - KSPCB
6.5499937928872,101.27999862621,1,26,25,Sateng, Mueang
-20.9105850632935,55.6190111532033,1,51,0,FR38009
63.3576,10.3719,1,46,0,E6-Tiller
54.924967,8.308208,3,41,0,DEUB001
52.653269,13.296081,6,46,0,DEBE062
50.987758,12.437621,1,51,0,DETH011
45.569451889306,5.93298617603727,1,20,0,FR33105
43.1847,124.3897,1,51,0,境园
42.6844444394648,-2.9175,6,40,0,ES1163A
42.295824,-83.129431,1,51,0,TRINITY ST MARKS
41.3788028014672,2.133098078,4,47,0,ES1396A
35.345607,-118.851825,7,29,0,Edison
34.5885,119.176,3,49,0,市环境监测站
31.3097,120.669,1,51,0,苏州工业园区
29.8539,114.2894,3,49,0,咸安区政府
29.6816,115.9872,1,51,0,十里
30.3058,120.348,3,49,0,下沙
28.3419248,77.319699,3,28,0,Nathu Colony, Ballabgarh - HSPCB
28.0797,116.2239,2,50,0,桐源党溪
25.0661,117.0256,3,49,0,闽西职业技术学院
14.683085094818,100.87513981078,3,49,0,Na Phra Lan, Chaloem Phra Kiat
12.733409,77.298051,3,12,0,Vijay Nagar, Ramanagara - KSPCB
-21.3129174283948,55.4742027294033,1,49,0,FR38014
54.6733329994938,25.248903,1,51,0,LT00004
51.544206,0.678408,1,51,0,Southend-on-Sea
50.6280389569951,3.09031237520525,1,51,0,FR11025
50.892377,14.822846,2,50,0,DESN045
50.3227545101591,3.39592821801555,7,45,0,FR06011
50.13577,8.92157,1,51,0,DEHE011
48.685827163516,6.175109094566,3,49,0,FR30016
45.7747754785278,3.06296765795665,4,17,0,FR07039
45.61,126.615,2,50,0,平房东轻厂
42.3508299994653,-3.67556,1,45,0,ES1160A
41.3874846394672,2.115149666,2,49,0,ES1992A
41.3163888794674,-4.90916666,2,44,0,ES1162A
40.1269,113.2661,1,51,0,安家小村
39.7794,-105.00523,1,51,0,La Casa NCORE - 4545
36.6867,101.524,1,51,0,第五水厂
36.511708,-77.655389,2,18,0,Northampton
31.8706,117.259,1,51,0,琥珀山庄
28.6701,76.9254,1,30,0,Arya Nagar, Bahadurgarh - HSPCB
28.19,112.9394,1,51,0,湖南师范大学
26.86812,81.005119,1,17,0,Gomti Nagar, Lucknow - UPPCB
27.2317,111.4733,2,50,0,市一中
25.4556,119.1117,1,51,0,涵江区六中
23.81748678,79.446246,1,13,6,Shrivastav Colony, Damoh - MPPCB
23.0395,113.105,4,48,0,华材职中
22.06047,88.109737,10,9,0,Haldia, Haldia - WBPCB
19.577,-99.2542,1,12,0,Atizapán
51.2789633039539,3.2486240629412,3,46,0,BETE714
50.791616,11.661233,4,48,0,DETH061
50.378240795397,3.06586023317151,1,51,0,FR06003
44.3075,86.0697,2,50,0,阳光学校
43.6156,122.3039,1,51,0,胶建铝业
41.947649,12.533682,1,51,0,Bufalotta
41.595344,12.653581,2,50,0,Aprilia 2
38.1324599994782,-4.80173,1,47,0,ES1972A
37.743061,-122.169907,3,49,0,Oakland
36.8649499994842,-2.3905,1,47,0,ES1786A
34.1781,117.1694,2,50,0,铜山区招生办
31.3139,118.3667,2,17,0,四水厂
29.8906,121.554,1,51,0,三江中学
29.389,106.513,1,51,0,鱼新街
28.5512005,77.2735737,10,19,0,CRRI Mathura Road, Delhi - IMD
28.4566599995493,-16.271836,1,26,0,ES2020A
26.5747,107.9783,1,51,0,市环境监测站
26.53111111,107.8908333,1,51,0,凯里学院
25.2708,110.3089,1,51,0,龙隐路小学
23.7208,109.2131,2,50,0,来宾二中
23.0786,112.4722,2,50,0,七星岩子站
19.6025,-99.1771,2,22,0,Tultitl��n
51.9214,4.40139,1,51,0,Schiedam-Alphons Arienstraat
50.9577862878515,1.890082307246,1,51,0,FR10026
50.0922657335736,3.85002659413797,5,13,0,FR06133
50.303208,6.001736,1,47,0,BETN085
48.645608,8.904442,1,51,0,DEBW112
47.3349,130.2659,1,51,0,哈啤分公司
46.5220101907476,6.63969979320694,1,37,0,CH0028A
46.0711097694636,18.22528648,1,50,1,HU0030A
43.9370778926249,4.82493223938152,1,51,0,FR03087
41.6655555494666,-3.68888888,1,45,0,ES1986A
39.5371,75.9828,1,51,0,巡警大队
40.054171,-74.985166,1,24,0,TOR
40.1192199994707,-3.83279,4,46,0,ES1963A
39.0845,117.1589,2,51,0,宾水西道(启用150702)
37.7575,115.6951,7,45,0,电机北厂
36.2866,100.6188,1,51,0,共和县恰卜恰镇
31.4,119.46,1,51,0,溧阳市东门子站
31.317,119.438,1,51,0,燕山子站
31.388,120.953,3,49,0,昆山实验小学
29.497973,76.993331,3,28,0,Sector-18, Panipat - HSPCB
29.06351,77.709723,1,11,0,Pallavpuram Phase 2, Meerut - UPPCB
28.999264,77.7590354,1,11,0,Ganga Nagar, Meerut - UPPCB
28.976989999544,-13.547584,1,36,0,ES1863A
28.757294,77.278792,1,27,0,Loni, Ghaziabad - UPPCB
28.1450929995525,-16.523687,1,36,0,ES1766A
27.6442,113.8686,1,51,0,市环保局
27.897638999555,-15.445028,1,36,0,ES1745A
27.2944,105.31,2,50,0,师专
20.0073285,73.7762427,3,26,2,Gangapur Road, Nashik - MPCB
52.4232,5.59338,5,47,0,Biddinghuizen-Kuilweg
52.401352,13.059945,1,51,0,DEBB021
52.485296,13.529504,1,51,0,DEBE066
52.146264,14.638166,1,51,0,DEBB032
50.409311,4.452172,2,46,0,BETR501
46.0872,85.6931,2,50,0,乌尔禾区商贸楼
42.6255555494649,-6.52083333,1,0,0,ES0373A
42.7155555494647,-5.63888888,1,0,0,ES0761A
41.5999999994668,-4.7325,1,0,0,ES1354A
39.12886,-84.50404,2,50,0,Taft
38.1935,-85.7121,1,51,0,Near Road
37.3407499994818,-6.04246,1,47,0,ES1630A
33.737,113.182,5,47,0,平顶山工学院
28.5773,121.377,1,51,0,路桥田洋王
25.012972,121.458667,1,51,0,Banqiao
17.349694,78.451437,1,27,0,Zoo Park, Hyderabad - TSPCB
12.9135218,77.5950804,1,28,0,BTM Layout, Bengaluru - CPCB
-20.9497682891053,55.3138534511879,2,45,0,FR38018
52.22694,10.47364,1,51,0,DENI011
50.449166359944,2.90000428226453,1,51,0,FR28010
49.0658373075805,5.78555467160757,4,45,0,FR30033
44.9200896648358,2.44108195306639,2,19,0,FR07052
45.238642,19.835704,1,39,0,RS0031A
43.5228999994638,-5.689452,2,48,0,ES2069A
41.9086,123.5953,1,51,0,裕农路
40.5933299994693,-3.50306,2,47,0,ES1838A
37.9722,-122.5189,1,51,0,San Rafael
37.3153999994819,-6.84463,1,49,0,ES0827A
13.428828,77.731418,1,30,0,Chikkaballapur Rural, Chikkaballapur - KSPCB
10.942451,76.978996,2,9,2,SIDCO Kurichi, Coimbatore - TNPCB
52.95702,11.16705,2,50,0,DENI060
52.473192,13.225144,6,46,0,DEBE032
51.90158,10.48132,4,48,0,DENI016
51.462839,-2.584482,1,48,0,Bristol St Paul's
50.979455,11.037924,1,51,0,DETH020
50.655861,12.205199,1,51,0,DETH036
50.561754,10.375299,2,50,0,DETH026
50.0073051452637,14.44593334198,1,51,0,CZ0ALIB
48.0510983887634,7.01111723057899,8,44,0,FR30028
41.79788,12.607033,2,50,0,Ciampino
42.3399999994653,-2.05972,6,43,0,ES1753A
41.1036778864679,1.200765062,1,50,0,ES1312A
37.1337899994828,-6.80745,4,44,0,ES1792A
35.0896,118.4023,1,51,0,河东保险公司
28.9678699995441,-13.555856,3,34,12,ES1955A
28.531346,77.190156,1,28,0,Sri Aurobindo Marg, Delhi - DPCC
28.563262,77.186937,1,28,0,R K Puram, Delhi - DPCC
28.56789,77.250515,1,28,0,Nehru Nagar, Delhi - DPCC
25.3167,110.4144,2,50,0,电子科大尧山校区
23.833778,80.391222,1,14,0,Gole Bazar, Katni - MPPCB
24.2613009,80.7231783,1,14,13,Sahilara, Maihar - KJS Cements
21.2679,110.3316,2,50,0,麻章区环保局
19.041847,72.865513,1,28,0,Bandra, Mumbai - MPCB
-21.0321286605182,55.2325559179751,1,50,0,FR38021
-32.9325,151.7583333,2,50,0,Newcastle
-32.7983333,151.66,1,51,0,Beresfield
60.88593,10.93785,2,50,0,Ringsakervegen
51.662435,11.043386,3,49,0,DEST098
51.837306,11.891412,1,51,0,DEST104
44.45388888888889,18.648333333333333,1,51,0,Živinice
43.895,81.2867,1,51,0,新政府片区
40.7067087604689,0.581651482,1,50,0,ES1215A
39.3673,112.4279,1,51,0,市二中
38.656449,-90.198548,1,51,0,BLAIR STREET
28.974801,77.213357,1,31,0,New Collectorate, Baghpat - UPPCB
28.5710274,77.0719006,1,31,0,Dwarka-Sector 8, Delhi - DPCC 
28.406963,77.849831,1,31,0,Yamunapuram, Bulandshahr - UPPCB
28.38053699955,-16.371986,1,36,0,ES1764A
27.583,110.0394,1,51,0,市委党校
28.0800069995531,-16.559855,1,36,0,ES1761A
27.7636519995564,-15.563851,1,36,0,ES1741A
25.771061,73.340227,1,28,3,Indira Colony Vistar, Pali - RSPCB
19.1375,72.915056,1,27,0,Powai, Mumbai - MPCB
17.460103,78.334361,1,31,0,Central University, Hyderabad - TSPCB
14.6107421035951,-61.0026146509316,1,51,0,FR39009
52.513606,13.418833,1,51,0,DEBE068
51.641383,7.331405,1,51,0,DENW002
51.870852,12.663663,1,51,0,DEST066
51.0669879019187,3.68281301720312,1,46,0,BETE716
48.7266129231085,4.5947838635901,1,50,0,FR14029
47.0656107498932,5.41502656636679,1,51,0,FR82042
47.306667329465,18.92000198,1,51,0,HU0032A
44.54083333333333,18.673333333333336,1,19,0,Skver
43.8667,125.417,3,49,0,经开区环卫处
43.5377709994638,-5.646307,1,49,0,ES1358A
41.0931,123.011,1,51,0,太阳城
39.024399,-77.489998,3,48,0,ASHBURN
37.2525799994823,-6.94219,1,48,0,ES1328A
36.6377,117.9544,1,51,0,气象站
35.0994,109.0656,2,50,0,党校
35.0315,-120.50101,1,51,0,Nipomo RP
35.494556,-120.666203,1,51,0,Atascadero2
33.920758,-116.858419,2,50,0,Banning - South Hath
29.9972,101.9533,1,51,0,州环保局
28.56923,77.393848,3,23,0,Sector-116, Noida - UPPCB
28.71583,104.5761,2,50,0,黄金嘴
26.8458805,80.9365541,1,28,0,Lalbagh, Lucknow - CPCB
26.4214,111.6156,2,50,0,市环境监测站
-33.7947222,150.9125,1,51,0,Prospect
51.839382,10.790143,1,51,0,DEST011
51.48178,-3.17625,1,51,0,Cardiff Centre
51.196063,3.82292,1,47,0,BETR750
51.150136,3.808735,1,47,0,BETR740
49.9439599994713,6.17591,3,49,0,LU0103A
45.755,126.542,1,51,0,岭北(对照点)
39.2133,117.1837,2,51,0,淮河道
37.6825,-121.4406,2,50,0,TracyAP
35.5714,104.6228,1,51,0,监测站（原粮食局）
29.8211,114.3231,2,50,0,市发改委
30.21,120.211,1,51,0,滨江
25.442,119.0156,1,51,0,荔城区仓后路
24.769519,113.586606,1,51,0,市八中
51.75816,10.61248,3,49,0,DENI051
45.7258,126.646,1,51,0,动力和平路
41.199722,-8.644722,2,13,0,PT01021
39.9567,119.6023,1,51,0,监测站
37.4489,116.3189,2,50,0,监理站
36.4372,115.9848,1,51,0,区政府
36.6885499994851,-6.11724,1,49,0,ES1781A
36.0822,111.5169,2,50,0,工商学校
36.139707,-115.175654,1,51,0,RT
33.9528,118.293,1,51,0,宿迁学院
31.7275,113.3583,1,51,0,市委党校
29.5364,75.0158,1,30,0,F-Block, Sirsa - HSPCB
29.2956,117.2461,1,51,0,陶研所
28.6573814,77.1585447,1,28,0,North Campus, DU, Delhi - IMD
28.73282,77.170633,5,24,0,Jahangirpuri, Delhi - DPCC
28.825341,78.7213009,4,24,0,Lajpat Nagar, Moradabad - UPPCB
28.060249,76.113115,4,27,0,Shastri Nagar, Narnaul - HSPCB
26.4364,106.6554,1,51,0,碧云窝
-34.0416667,150.6902778,1,51,0,Camden
-34.0530556,150.4972222,3,49,0,Oakdale
51.2458642170723,3.17498420168089,1,47,0,BETE715
49.3686110119252,6.16083486470134,2,50,0,FR01019
47.3227,123.9483,1,51,0,农牧车辆厂
45.7352883837178,4.82979212506861,1,20,0,FR20017
45.6082391731948,5.27087391272413,1,20,0,FR27007
43.2877277836684,3.50483097990936,1,51,0,FR08022
43.5388629994638,-5.698921,1,49,0,ES1271A
41.889438,12.2663,1,51,0,Castel di Guido
40.715,120.8478,2,50,0,新区
39.991389,-75.080833,2,3,0,NEW
38.01777778,114.5330556,1,51,0,世纪公园
35.7289,107.6831,1,51,0,区环保局
31.7618,116.478,1,51,0,皖西学院
28.9583,105.4306,1,51,0,九狮山
28.557054,77.453663,3,24,0,Knowledge Park - V, Greater Noida - UPPCB
28.498571,77.26484,1,31,0,Dr. Karni Singh Shooting Range, Delhi - DPCC
28.095,116.9622,1,51,0,龙虎山
24.8885,102.821,2,50,0,呈贡新区
19.2243333,72.8658113,1,27,0,Borivali East, Mumbai - MPCB
-33.9194444,150.7611111,1,51,0,Bringelly
60.79646,11.09777,3,47,0,Vangsveien, Hamar
51.50758,10.23854,1,51,0,DENI028
50.694322523083,1.57657027308828,1,51,0,FR10032
50.103135,11.442591,1,51,0,DEBY032
48.899233,9.172792,1,51,0,DEBW024
46.7588,130.3794,1,51,0,四丰
44.5486285541342,6.06730227731882,2,50,0,FR24038
43.4208299994639,-3.84111,1,40,0,ES1577A
41.976385750466,2.816547298,1,50,0,ES1999A
41.1935872404677,1.236702825,1,50,0,ES1122A
40.916,107.5936,1,51,0,秋林养殖基地
41.2692,123.7989,1,51,0,新立屯
40.1503,124.4256,1,51,0,临江后街
39.8396199994716,3.02705,1,50,0,ES1518A
39.9419,119.5369,1,51,0,建设大厦
39.3606,112.4549,3,49,0,朔唯
39.0927,117.202,1,51,0,前进道
36.5776,114.5035,1,51,0,矿院
36.1794299994879,-5.37697,1,47,0,ES0556A
35.31,113.836,1,51,0,环保西院
33.568,114.005,1,51,0,漯河大学
31.737,119.579,1,51,0,金坛市自来水公司
30.4551,106.6388,1,51,0,广电花园
29.6475,91.0874,1,51,0,区监测站
30.2456,120.127,1,51,0,卧龙桥
28.0298519995536,-15.416086,1,36,0,ES0886A
25.5941,85.1376,1,24,4,IGSC Planetarium Complex, Patna - BSPCB
23.01277778,113.7944444,1,51,0,东城石井
22.8693,112.844,1,51,0,高明孔堂
13.666116121283,100.60574118114,1,51,0,Bangna, Bangna
60.88364255,11.55930063,1,49,0,Leiret
51.570662,8.148061,1,51,0,DENW068
49.0461163533504,3.95591101667714,1,51,0,FR14028
47.3382,130.1097,1,51,0,五号水库
41.55643,-109.53044,2,0,0,James Town Mobile
37.9325,102.6486,1,46,0,东关招商场(190211启用)
36.6489,116.943,1,51,0,机床二厂
33.6406,114.6369,1,51,0,川汇区环保局
30.9222,117.8078,1,51,0,市公路局
30.0475,101.9603,1,51,0,水桥子
29.7128,118.3057,1,51,0,延安路89号
29.4723508,77.7194031,1,29,0,New Mandi, Muzaffarnagar - UPPCB
28.5819,112.3744,1,51,0,赫山环保分局
28.0005,116.3574,1,51,0,采茶剧团
24.3158,109.4839,1,51,0,古亭山
13.705459031688,100.31567469065,1,51,0,Om Noi, Krathum Baen
-33.765278,151.117806,1,1,0,Macquarie Park
-33.682778,150.903611,1,1,0,Rouse Hill
-34.92889,138.6010841,2,0,0,CBD
55.944079,-4.734421,1,51,0,Greenock A8 Roadside
53.862237,10.67332,1,51,0,DESH053
52.448,4.81671,1,51,0,Zaandam-Wagenschotpad
49.7452850616382,4.71916459782929,1,51,0,FR14051
46.3991,124.8847,1,51,0,红岗区
45.9225095176583,6.87000088259666,1,20,0,FR33120
42.3683181094653,1.776783258,1,50,0,ES1348A
41.7793434514664,2.358018901,1,50,0,ES1778A
38.65,-9.048611,1,51,0,PT03103
36.0783,111.5531,1,51,0,临钢医院
29.8175,114.329,1,0,0,森林公园(对照点)
28.674045,77.131023,1,28,0,Punjabi Bagh, Delhi - DPCC
27.8036,114.3442,1,51,0,槟榔水业(对照点)
26.585,101.7169,1,51,0,炳草岗
25.1081,99.1678,1,51,0,市环境监测站
61.2380699995476,28.87369,0,52,0,FI00080
61.1889199995471,28.77012,0,52,0,FI00424
60.395929,5.312674,0,52,0,Klosterhaugen
60.79089,10.6967,0,51,0,Minnesundvegen, Gjøvik
60.983889999545,25.66218,0,14,0,FI00067
60.361135,5.23686,0,52,0,Loddefjord
59.914106,10.82263,0,49,0,Bryn skole
59.93233,10.72447,0,51,0,Kirkeveien
59.73325,10.21187,0,50,0,Bangeløkka
60.2239299995377,25.10244,0,52,0,FI00781
60.2202399995376,24.81133,0,52,0,FI00841
60.2899499995383,25.03953,0,52,0,FI00370
60.1873899995373,24.9506,0,52,0,FI00425
58.96173,5.73147,0,49,0,Våland
58.96415,5.72785,0,46,0,Kannik
59.13812,9.65212,0,52,0,Sverresgate
59.15927,9.63565,0,52,0,Lensmannsdalen
57.0466523886598,9.93087546594131,0,52,0,DK0053A
57.144555,-2.106472,0,52,0,Aberdeen Union Street Roadside
56.1597834472854,10.1936326865463,0,52,0,DK0056A
56.5231749995064,21.004694,0,52,0,LV0012A
56.0083351095027,21.88694763,0,51,0,LT00053
56.3097228995048,22.33139038,0,51,1,LT00023
55.9378356895022,23.30802727,0,52,0,LT00022
56.013142,-3.710833,0,52,0,Grangemouth Moray
55.3963873093883,10.3891959238991,0,52,0,DK0046A
55.6941046893584,12.0886287783964,0,52,0,DK0012R
55.7002810664676,12.5614121124285,0,52,0,DK0045A
55.6983573815235,12.5533272748714,0,52,0,DK0030A
55.7077779995006,21.141111,0,52,0,LT00031
55.6899999995005,21.17946,0,52,0,LT00033
55.2799999994977,23.95778,0,52,0,LT00043
55.872038,-4.270936,0,52,0,Glasgow Great Western Road
55.860936,-4.238214,0,52,0,Glasgow High Street
55.865782,-4.243631,0,52,0,Glasgow Townhead
55.657472,-3.196527,0,52,0,Peebles
54.78143,9.43809,0,52,0,DESH022
55.0722219994964,24.283894,0,52,0,LT00042
54.6776249994938,25.285186,0,51,0,LT00001
54.59965,-5.928833,0,48,0,Belfast Centre
55.070033,-3.614233,0,52,0,Dumfries
54.894834,-2.945307,0,52,0,Carlisle Roadside
54.60537,-1.275039,0,52,0,Billingham
54.569297,-1.220874,0,52,0,Middlesbrough
54.565819,-1.3159,0,52,0,Stockton-on-Tees A1305 Roadside
54.516667,-1.358547,0,52,0,Stockton-on-Tees Eaglescliffe
54.88361,-1.406878,0,52,0,Sunderland Silksworth
53.7153,7.21398,0,51,0,DENI058
53.835492,10.695936,0,52,0,DESH023
53.631805,11.398332,0,51,0,DEMV023
53.817775,12.064708,0,51,0,DEMV004
54.323514,13.342138,0,51,0,DEMV026
53.800117,-112.927795,0,52,0,Bruderheim
53.76559,-2.680353,0,52,0,Preston
53.747751,-2.452724,0,52,0,Blackburn Accrington Road
53.2465,6.60894,0,52,0,Groningen-Nijensteinheerd
53.36235,7.20726,0,52,0,DENI029
52.99796,7.94257,0,52,0,DENI053
53.59617,8.09059,0,52,0,DENI031
53.124561,8.735047,0,52,0,DEHB012
53.180946,8.625456,0,52,0,DEHB004
53.060045,8.916966,0,52,0,DEHB002
53.52902,10.081685,0,52,0,DEHH016
52.99875,11.73846,0,52,0,DEBB063
53.396348,12.463929,0,50,0,DEMV024
52.93189,12.809481,0,52,0,DEBB048
53.064262,14.285139,0,52,0,DEBB029
53.5028,-113.6111,0,52,0,Edmonton South
53.5472,-113.3681,0,52,0,Edmonton East
53.353889,-6.278056,0,52,0,IE0028A
53.341667,-6.288889,0,52,0,IE0098A
53.388511,-3.025014,0,52,0,Birkenhead Borough Road
53.34633,-2.844333,0,52,0,Liverpool Speke
53.54914,-2.638139,0,51,0,Wigan Centre
53.37287,-3.022722,0,52,0,Wirral Tranmere
53.559029,-2.293772,0,52,0,Bury Whitefield Roadside
53.46008,-2.472056,0,52,0,Glazebury
53.48481,-2.334139,0,52,0,Salford Eccles
53.231722,-1.456944,0,52,0,Chesterfield Roadside
52.95473,-1.146447,0,52,0,Nottingham Centre
53.56292,-1.510436,0,46,0,Barnsley Gawber
53.378622,-1.478096,0,44,0,Sheffield Devonshire Green
52.614193,1.301976,0,52,0,Norwich Lakenfields
52.463,4.60184,0,52,0,IJmuiden-Kanaaldijk
52.39,4.88781,0,52,0,Amsterdam-Van Diemenstraat
52.358,4.8997,0,52,0,Amsterdam-Stadhouderskade
52.3207,4.9884,0,52,0,Amsterdam-Kantershof (Zuid Oost)
52.49855,7.31747,0,52,0,DENI043
52.25534,8.05286,0,52,0,DENI038
52.17017,9.06255,0,52,0,DENI041
52.36292,9.70612,0,52,0,DENI054
52.82943,9.62295,0,52,0,DENI052
52.44081,10.81638,0,52,0,DENI020
52.127899,11.611464,0,52,0,DEST077
52.593136,11.172327,0,52,0,DEST089
52.268354,11.864763,0,52,0,DEST002
52.602056,11.850274,0,52,0,DEST105
52.608609,12.885194,0,52,0,DEBB067
52.420442,12.552303,0,52,0,DEBB055
52.484168,13.123698,0,52,0,DEBB075
52.481882,13.84825,0,1,0,DEBB099
52.349703,13.424304,0,52,0,DEBB086
52.485814,13.348775,0,52,0,DEBE018
52.677651,13.582269,0,52,0,DEBB068
52.563835,14.015252,0,52,0,DEBB053
52.33468,14.52596,0,52,0,DEBB092
52.22174,-2.736665,0,52,0,Leominster
52.605621,-2.030523,0,52,0,Walsall Woodlands
52.619823,-1.127311,0,52,0,Leicester University
52.437165,-1.829999,0,52,0,Birmingham Acocks Green
