lat,lon,count_A,count_B,count_C,location
78.90669,11.88899,52,0,0,Zeppelinfjellet
67.9673440876493,24.1122195302226,52,0,0,FI00356
68.477009999634,28.3031,52,0,0,FI00357
65.83089,13.90655,52,0,0,Tustervatn
66.3216999996054,29.40157,52,0,0,FI00352
65.0433799995895,25.4979,52,0,0,FI00301
64.8458,-147.72727,52,0,0,NCore
63.723301,-148.967499,52,0,0,Denali NPP
63.5086,-116.0078,42,0,0,Snare Rapids
62.78246,8.87658,52,0,0,Kårvatn
63.1012099995673,21.60407,42,0,0,FI00586
63.1430999995677,31.04695,50,0,0,FI00428
60.395929,5.312674,46,0,0,Klosterhaugen
60.5300199995406,27.6754,52,0,0,FI00893
59.9524,10.487777,5,43,0,Lommedalen
59.7792299995335,21.37395,34,18,0,FI00349
60.3135960714999,24.6894769317978,9,43,0,FI00208
60.1465,-113.63769,50,0,0,Wood Buffalo Park
60.13922,-1.185319,52,0,0,Lerwick
59.19722,5.20148,52,0,0,Sandve
59.2024,9.48708,23,28,0,Haukenes
58.38846,8.2519,52,0,0,Birkenesobservatoriet
58.7083,-111.1764,52,0,0,Fort Chipewyan
57.4046329995131,21.591989,47,0,0,LV0007A
57.734456,-4.776583,23,29,0,Strathvaich
56.9506059995096,24.115872,30,22,0,LV0019A
56.82266,-5.101102,41,11,0,Fort William
57.15736,-2.094278,40,12,0,Aberdeen
56.2903769274682,8.42740110752183,52,0,0,DK0031R
56.5231749995064,21.004694,39,13,0,LV0012A
55.945589,-3.182186,9,43,0,Edinburgh St Leonards
55.1964,-119.3967,52,0,0,Beaverlodge
55.340367,-115.895667,50,0,0,Joussard
55.50333,-106.72167,52,0,0,Pinehouse Lake
55.865782,-4.243631,52,0,0,Glasgow Townhead
54.8836135894951,23.8358345,9,43,0,LT00044
54.4494,-90.2175,49,0,0,Pickle Lake
54.43951,-7.900328,10,42,0,Lough Navar
54.59965,-5.928833,32,16,0,Belfast Centre
54.88361,-1.406878,2,50,0,Sunderland Silksworth
54.09323,10.240596,3,49,0,DESH008
54.09262,12.099553,16,35,0,DEMV022
53.9147,-122.7419,29,23,0,PRG Plaza 400
53.6825,-112.8686,34,18,0,Elk Island
54.294639,-109.209214,52,0,0,Flat Valley
52.95049,1.122017,25,25,0,Weybourne
52.8757,6.93243,4,48,0,Valthermond-Noorderdiep
52.9822,-122.4922,22,30,0,Quesnel Senior Secon
53.5936,-116.3928,13,39,0,Edson
53.3047,-60.3644,52,0,0,Goose Bay
53.326444,-9.903917,3,49,0,Mace Head
53.187222,-6.121667,8,44,0,IE0141A
53.37287,-3.022722,2,50,0,Wirral Tranmere
53.40337,-1.752006,15,37,0,Ladybower
52.448,4.81671,52,0,0,Zaandam-Wagenschotpad
52.3275,4.71501,52,0,0,Hoofddorp-Hoofdweg
52.593136,11.172327,3,49,0,DEST089
52.489451,13.430844,9,43,0,DEBE034
52.543041,13.349326,18,34,0,DEBE010
52.398406,13.368103,12,40,0,DEBE027
52.1361,-106.6631,26,26,0,Saskatoon
52.50385,-3.034178,30,17,0,Aston Hill
51.8694,4.58006,3,49,0,Ridderkerk-Hogeweg
51.9271,4.46134,3,49,0,Rotterdam Noord -Statenweg
51.9214,4.40139,2,50,0,Schiedam-Alphons Arienstraat
51.932,4.22802,22,30,0,Maassluis-Kwartellaan
51.75816,10.61248,40,12,0,DENI051
51.01628,2.582323,22,27,0,BETN029
50.8459,5.71475,12,40,0,Maastricht-A2 Nassaulaan
50.8521,5.6758,8,44,0,Maastricht-Hoge Fronten
50.9003,5.98685,43,9,0,Heerlen-Jamboreepad
51.06493,13.741397,3,49,0,DESN061
50.6610946655273,14.0430631637573,8,44,0,CZ0UULM
50.7896461486816,15.3196830749512,11,41,0,CZ0LSOU
50.6604385375976,15.8500900268555,18,24,0,CZ0HKRY
51.047611,-114.075165,11,41,0,Calgary Central2
50.71124,-57.36365,51,0,0,Port au Choix
50.725083,-3.532465,8,44,0,Exeter Roadside
51.149617,-1.438228,3,49,0,Chilbolton Observatory
49.9163400642381,0.957181884687874,12,40,0,FR25045
50.4564875668497,3.42794417474157,11,37,0,FR06134
50.2793750793217,3.97691362801985,6,46,0,FR06007
49.9077785386149,4.62999782272758,46,5,0,FR14008
50.3544,7.596583,7,45,0,DERP024
50.497711,9.935862,24,28,0,DEHE051
50.048397,10.232076,12,40,0,DEBY068
50.1110801696777,14.5030956268311,4,48,0,CZ0AVYN
50.4269,124.1186,33,19,0,环保局
50.2538,127.4143,19,33,0,地震局　
50.1439,-122.9611,38,14,0,Whistler Meadow Park
50.2333,-119.2833,34,18,0,Vernon Science Centr
50.0492,-110.6814,52,0,0,Medicine Hat - Cresc
50.285833,-107.81689,52,0,0,SPEEDY CREEK
50.45,-104.6169,52,0,0,Regina
49.270263,7.826521,2,50,0,DERP017
49.741035,7.193486,1,51,0,DERP014
49.487983,11.786341,1,51,0,DEBY093
49.7701263427734,13.368221282959,9,42,0,CZ0PPLL
49.7324485778809,13.4022808074951,2,50,0,CZ0PPLA
49.2027244567871,16.6162872314453,28,24,0,CZ0BBDN
49.1577,119.7512,30,22,0,国华电力东
49.36972,-121.49944,5,47,0,Hope
49.7164,-112.8006,52,0,0,Lethbridge
49.6639,-93.7211,34,17,0,Experimental Lakes
49.3864,-82.1214,52,0,0,Bonner Lake
49.8222,-74.9764,52,0,0,Chapais
49.0630709589742,1.86638475005092,22,30,0,FR04158
48.3911695951651,1.95562339037536,6,46,0,FR34043
48.5819353168103,1.88333595946226,11,41,0,FR04038
49.1002566324166,2.3438932224775,10,42,0,FR04048
48.947611,13.420573,14,28,0,DEUB046
49.0791664094688,19.30252457,10,42,0,SK0008A
48.6311111494676,20.24028397,1,51,0,SK0025A
48.4292,-123.3583,6,46,0,Victoria Topaz
48.5103,-113.9956,52,0,0,Glacier NP
48.8183,-72.7428,35,17,0,PÉMONCA
49.0194,-55.8028,23,0,0,Grand Falls Windsor
48.4090620061077,-4.4751103014397,25,23,0,FR19015
48.0510983887634,7.01111723057899,23,29,0,FR30028
47.809892,7.764528,26,26,0,DEBW031
47.913256,7.908035,10,34,0,DEUB004
48.137252,11.564924,5,47,0,DEBY037
47.6719474794656,16.8388958,28,24,0,HU0040A
47.8515,88.1267,32,20,0,市站
48.2867,-124.6203,52,0,0,Cheeka Peak
48.317507,-107.862471,52,0,0,Malta
47.8679,-104.676864,52,0,0,Sidney 201
48.2344,-78.9833,52,0,0,Parc Tremblay
47.6472,-72.2914,30,22,0,Édouard
47.648889066211,-2.76389155041474,21,31,0,FR19033
47.170142422867,1.40968125960456,8,44,0,FR34054
47.2750173101874,4.09832992182145,41,11,0,FR26012
47.0495154343676,6.97920907168707,12,26,0,CH0004R
46.9761123694645,18.93611336,12,40,0,HU0033A
47.203,123.6261,8,35,0,富区环保局
47.3382,130.1097,7,45,0,五号水库
47.3349,130.2659,7,45,0,哈啤分公司
47.568236,-122.308628,24,28,0,Seattle-Beacon Hill
47.048537,-109.455315,51,0,0,Lewistown
47.342589,-102.645997,33,19,0,Lake Ilo
47.6094,-65.6333,52,0,0,BATHURST
47.505,-52.7947,31,21,0,Mount Pearl
46.8148188300394,2.61008200746779,5,47,0,FR34038
46.671325047904,5.55680766765938,2,50,0,FR82050
46.7432,82.9994,52,0,0,东门外小游园
46.5776,125.1386,23,29,0,萨尔图区
46.2756,-116.0216,51,0,0,Nez Perce Tribe
46.842297,-114.020549,52,0,0,Missoula Boyd Park
46.8505,-111.987164,52,0,0,NCORE
46.8183,-92.0892,34,18,0,Duluth-WDSE
46.6144,-90.6986,40,13,0,BAD RIVER TRIBAL SCH
46.5331,-84.3094,33,19,0,Sault Ste Marie
46.491941,-81.003105,52,0,0,Sudbury
46.3175,-79.4453,52,0,0,North Bay
46.8214,-71.2208,22,30,0,Des Sables
46.6964,-68.033096,32,19,0,MICMAC
46.3864,-62.5828,14,33,0,SOUTHAMPTON
46.1425,-60.1728,52,0,0,SYDNEY
45.4200881308329,4.39542075258545,2,50,0,FR29424
46.0802764894636,18.21112251,29,23,0,HU0029A
45.821483,20.454008,9,42,0,RS0034A
46.0872,85.6931,19,33,0,乌尔禾区商贸楼
45.6175,122.8211,17,35,0,市环保局
46.0347,124.8354,11,41,0,大同区
45.755,126.542,17,35,0,岭北(对照点)
45.61,126.615,11,41,0,平房东轻厂
45.440295,-105.37028,31,20,0,Broadus
45.5639,-88.81,52,0,0,POTAWATOMI
45.502648,-73.663913,24,28,0,Duncan
46.0419,-72.66,1,51,0,Zéphirin
46.11,-64.79,24,28,0,MONCTON
44.9970050186665,6.46939718164356,45,4,0,FR15031
44.9079,82.0485,30,22,0,博乐市西郊区
45.2978,130.9298,3,49,0,气象局　
44.933998,-106.847198,38,13,0,Sheridan
45.1425,-93.2139,9,43,0,Blaine
45.2066,-90.5969,24,28,0,Perkinstown
44.980598,-74.695297,49,2,0,St Regis Mohawk-NY
45.203963,-68.740041,5,13,0,Howland Ameriflux
45.3092,-66.0092,15,37,0,FOREST HILLS
44.3007,10.431,48,3,0,FEBBIO
44.1404,10.9172,37,14,0,CASTELLUCCIO
43.9274,12.2248,49,2,0,SAVIGNANO DI RIGO
43.9072,12.4012,16,35,0,SAN LEO
44.53194444444444,18.654722222222222,22,11,0,BKC
44.3336,84.8983,52,0,0,独山子区
44.1564,87.9897,20,32,0,天山天池
43.9317,116.1042,26,26,0,市环保监测站
43.9311,116.0781,36,16,0,市政府
43.8875,126.555,1,51,0,哈达湾
44.5462,129.6386,23,29,0,第一中学
44.5597,-110.4006,30,20,0,Yellowstone NP
44.28,-108.041107,32,20,0,Basin
44.155636,-103.315765,44,8,0,Black Hawk
44.348604,-96.807299,33,13,0,Research Farm
44.180901,-85.738998,14,38,0,Hoxeyville
44.2994,-81.5753,20,32,0,Tiverton
44.377048,-68.260902,22,30,0,Acadia NP - McFarlan
43.2831503020971,5.51208953281591,21,31,0,FR03037
43.3060996358468,5.39579363613379,8,44,0,FR03043
43.1310479441995,5.92423658516994,2,50,0,FR03071
43.322554,21.919025,6,45,0,RS0033A
43.4569,87.4651,31,21,0,培训基地
43.6801,122.2532,37,15,0,艺术职业学校
43.7878,125.454,11,41,0,净月潭
43.600699,-116.347853,44,8,0,St. Lukes Meridian
43.460602,-113.562202,52,0,0,Craters of the Moon
43.87483,-106.50974,21,31,0,Johnson County
43.746944,-101.941109,52,0,0,Badlands
43.6619,-79.3853,12,40,0,Toronto Downtown
43.1461,-77.5481,24,9,0,Rochester
43.629605,-72.309499,12,40,0,Lebanon
43.5298619994638,-5.673498,3,47,0,ES1272A
43.345649999464,-5.96967,9,41,0,ES2075A
42.516943999465,1.56525,47,5,0,AD0944A
43.0313333327977,16.1159722222222,42,0,0,HR0018A
42.6446972216871,18.1226111111111,26,0,0,HR0020A
42.9559,89.1673,37,15,0,地区环保局
42.8328,93.4961,34,18,0,哈密师范学校
42.8939,129.4892,21,31,0,妇幼医院
42.5275,-108.7203,11,41,0,South Pass
42.8292,-97.8541,31,21,0,Santee Sioux
43.0611,-87.9125,4,48,0,MILWAUKEE SER DNR
42.984699,-85.671097,14,38,0,GRAND RAPIDS
42.4164,-83.9019,6,46,0,Ann Arbor
43.0528,-76.0597,14,8,0,E Syracuse
42.605816,-72.596689,6,46,0,Greenfield
42.6267,-71.3622,1,48,0,Chelmsford
42.7205599994647,-8.92361,35,15,0,ES0005R
42.0513406864659,0.729555647,16,34,0,ES1982A
42.3120784204654,2.214272866,7,44,0,ES1310A
41.7793434514664,2.358018901,1,50,0,ES1778A
41.958676873466,3.212854412,17,34,0,ES1311A
42.2360870106484,9.19003485112794,18,34,0,FR41024
42.160972,11.900022,52,0,0,Allumiere - v.Aldo Moro
42.157741,11.908744,46,6,0,Allumiere
41.67,13.674472,24,28,0,Fontechiari
41.7128,86.2381,19,33,0,经济开发区
42.2556,118.8789,20,32,0,天义路
41.9967,121.6178,9,43,0,工业园区
41.8864,124.0878,16,36,0,大伙房水库
42.2953,123.8831,12,40,0,水上乐园
41.7561,123.535,4,48,0,浑南东路
41.7775,123.478,11,41,0,小河沿
41.7156,125.9361,6,46,0,光明
41.9206,126.4047,9,43,0,喜丰
41.72679,-122.63359,43,8,0,Yreka
41.855301,-87.752502,16,33,0,CICERO
41.833099,-73.303299,39,13,0,Cornwall
42.329399,-71.082497,17,35,0,Boston - Roxbury
41.802222,-8.693889,13,39,0,PT01047
41.2783810944675,1.179916582,20,31,0,ES1812A
41.5358299994669,20.6989,46,1,0,MK0042A
41.4405599994671,22.00723,13,39,0,MK0044A
41.3672,69.2725,53,9,0,US Diplomatic Post: Tashkent
41.1636,80.2828,27,25,0,电视台
40.916,107.5936,19,33,0,秋林养殖基地
41.5647,120.4247,13,39,0,八里堡
41.3642,-106.2399,34,17,0,Centennial
41.2474,-95.9731,29,23,0,NCORE
41.6031,-93.643303,32,20,0,CARPENTER
41.5144,-90.5172,8,38,0,ROCK_IS
41.492191,-81.678552,25,26,0,G.T.Craig
41.371389,-7.790833,33,19,0,PT01048
41.2388899994676,-5.8975,32,18,0,ES0013R
40.8369,111.751,4,48,0,如意水处理厂
40.8725,114.904,11,41,0,北泵房
40.1952,116.23,5,47,0,昌平镇
40.2865,116.17,7,45,0,定陵
40.7094,122.2703,7,45,0,大庆路
40.6511,122.215,4,48,0,镜湖西路
40.6789,122.1658,6,46,0,西炮台
40.715279,-124.201393,1,0,0,Humboldt Hill
40.5403,-121.5764,15,37,0,Lassen Volcanic NP
40.712064,-112.111122,1,31,0,MA
40.662841,-111.901796,23,29,0,NR
40.6847,-80.3597,3,49,0,Brighton Township
40.4656,-79.9611,7,45,0,Lawrenceville
40.613864,-79.729569,24,1,0,Harrison Township
40.3125,-74.8729,5,47,0,Wash. Crossing
40.816101,-73.902199,5,29,0,Bronx - IS52
40.641111,-8.100556,39,13,0,PT02021
39.5700799994725,2.65583,24,26,0,ES1610A
39.5371,75.9828,8,44,0,巡警大队
39.746,98.509,11,41,0,仓门街子站
39.5986,109.7736,16,36,0,康泽苑
39.8261,109.9486,11,41,0,巴音孟克林场办事处
40.1097,113.3819,8,44,0,果树场
39.8283,119.5259,19,33,0,北戴河环保局
40.0181,119.7624,8,44,0,第一关
40.1194,124.3678,25,27,0,民主桥
39.472471,-118.783624,41,11,0,Fallon
39.7794,-105.00523,14,38,0,La Casa NCORE - 4545
39.6389,-105.1389,16,36,0,Welch - 12400 W. Hwy
39.4751,-91.78899,13,39,0,MTSP
39.8669,-88.9256,35,9,0,DECATUR
39.7489,-86.1861,12,39,0,Indpls-Harding St
39.787933,-86.13088,41,10,0,Indpls - I-70 E
39.6359,-83.2605,18,34,0,Deer Creek
39.705799,-79.011902,12,40,0,Piney Run
39.8172,-75.5639,4,48,0,BCSP
39.7394,-75.5581,3,49,0,MLK
40.091702,-75.097801,20,32,0,LABP
39.46487,-74.448738,12,40,0,Brigantine
39.8680599994715,-4.02083,8,43,0,ES1818A
40.0618499994709,-2.12972,1,49,0,ES1858A
38.9349199994748,1.43181,13,38,0,ES1831A
38.9064799994749,1.43537,11,40,0,ES1247A
38.9467,100.4686,30,22,0,监测站
38.8343,105.6775,4,48,0,体育场
38.8516,105.724,14,38,0,环保局新楼
38.8394,117.457,4,48,0,永明路
38.808055556,121.25888889,3,49,0,旅顺
39.0631,121.9769,12,40,0,双D港
38.7272,-120.8181,5,11,0,Placerville
39.250437,-119.956741,12,40,0,Incline
39.0053,-114.2158,52,0,0,Great Basin NP
38.9564,-106.9858,25,27,0,Gothic
38.7703,-99.7636,52,0,0,Cedar Bluff
39.0242,-95.7114,31,21,0,KNI-Topeka
39.1175,-94.6356,30,22,0,WY/KC
38.7408,-87.4853,14,38,0,Vincennes
38.895683,-76.958089,18,34,0,RIVER_Terrace
38.970101,-77.016715,3,49,0,TakomaRec
38.785,-9.347222,2,50,0,PT03089
39.3525,-8.466111,5,47,0,PT03096
38.7027199994757,-4.112,7,43,0,ES1365A
37.9358,102.6469,2,4,0,雷台
38.3344,109.7414,19,33,0,红石峡森林公园(对照点)
37.8792,113.4922,4,48,0,赛鱼
38.3228,116.8709,6,46,0,市环保局
38.611893,-90.160614,13,31,0,East St. Louis
37.9214,-83.0662,34,18,0,Crockett
38.346258,-81.621161,14,38,0,CHARLESTON
38.5231,-78.4347,46,6,0,Shenandoah NP
38.445,-76.1114,15,31,0,Blackwater NWR
38.605,-28.631389,52,0,0,PT07001
38.1379299994781,-4.90397,34,14,0,ES1971A
37.3753,97.3731,52,0,0,德令哈市
37.5136,111.1297,21,31,0,自来水公司
37.7087,112.7105,3,49,0,榆次区政府
37.85,113.5158,18,34,0,大阳泉
37.5433,121.3719,9,43,0,轴承厂
37.5436,121.3181,3,49,0,西郊化工站
37.4014,121.5992,3,49,0,牟平检察院
37.6547,-122.0317,26,26,0,Hayward
37.713299,-119.7061,29,23,0,Yosemite NP Turtleba
37.1983,-113.1506,14,38,0,Zion NP
37.1983,-108.4903,30,22,0,Mesa Verde NP
37.205862,-107.254118,12,23,0,7004
37.7011,-97.3139,23,29,0,WHlthDpt
37.1314,-86.1481,27,25,0,Mammoth Cave NP
37.7046,-85.0485,31,21,0,Mackville
37.3297,-80.5578,40,12,0,Horton Station
37.2796399994821,-6.93807,3,45,0,ES0822A
37.1856799994826,-6.96414,3,45,0,ES0823A
37.4298599994814,-5.98039,8,42,0,ES1519A
37.2372199994823,-3.53417,39,11,0,ES0007R
37.1013,79.9117,26,26,0,古江巴格乡院内
36.9639,100.9048,8,44,0,海晏县西海镇
36.6275,109.4131,23,29,0,枣园
37.0964,114.5331,9,43,0,路桥公司
37.0967,114.4821,11,41,0,达活泉
36.4343,116.0072,3,49,0,聊大东校
36.6872,116.989,24,28,0,济南化工厂
36.71,117.541,21,83,0,环境监测站
36.864,118.78,22,30,0,世纪学校
36.485001,-121.155602,12,40,0,Pinnacles NM
36.6972,-119.0189,33,15,0,Pinehurst
36.5092,-116.8481,33,19,0,Death Valley NP
36.7944899994846,-5.53162,17,33,0,ES1822A
36.8413299994843,-2.44672,15,33,0,ES1393A
36.0670700094886,14.19715309,36,13,0,MT00007
36.0464,103.831,12,40,0,铁路设计院
36.0211,106.2375,22,30,0,新区
35.7289,107.6831,11,41,0,区环保局
36.1942,117.0881,5,47,0,人口学校
36.0699,120.3471,36,16,0,市北区子站
36.3083,120.1964,5,47,0,黄岛区子站
36.283,120.008,1,0,0,胶州环保局
35.64366,-120.23134,28,24,0,Redhills/Shandon
35.978149,-114.846313,24,28,0,Boulder City
36.055,-112.1531,31,21,0,Grand Canyon NP
36.035,-107.904167,13,39,0,Chaco Culture Nation
36.187733,-106.698378,17,26,0,Coyote Ranger Distri
36.1589,-98.9353,48,0,0,Seiling
36.1053,-96.3608,12,40,0,Mannford
36.011703,-94.167436,7,38,0,Fayetteville
36.0388,-85.7331,19,31,0,Edgar Evins
35.889402,-78.8747,17,32,0,Burdens Creek
35.5102,102.0199,32,20,0,同仁县隆务镇
35.5294,106.7039,8,44,0,博物馆
35.5236,107.6406,14,38,0,粮贸总公司
35.04388889,111.0522222,5,47,0,外滩首府
35.5051,112.85,9,43,0,自来水公司
35.4894,112.8664,5,47,0,技术学院
35.546,112.8453,9,43,0,白马寺
35.0992,117.4518,14,38,0,山亭区环保局
35.3313,-119,7,45,0,Bakersfield-Muni
34.894054,-117.024756,10,42,0,Barstow
34.8803,-101.6649,52,0,0,Palo Duro
35.4778,-97.3022,9,39,0,Choctaw
35.3772,-89.8319,21,31,0,ORGILL
35.0608,-83.4306,7,45,0,Coweeta
34.977,-81.207,2,42,0,York Landfill
34.4714,100.2561,52,0,0,玛沁县大武镇
34.5653,105.8614,9,43,0,文化馆
34.3474,108.935,8,44,0,经开区
34.794,111.158,2,50,0,开发区
34.7822,111.19,10,42,0,第一小学
34.8019,113.675,10,42,0,银行学校
34.7538,113.6356,7,45,0,河医大
34.407,115.6386,6,47,0,睢阳区环保局　
34.7837,117.2852,6,46,0,薛城环保局
34.637798,-120.456703,38,14,0,Lompoc H Street
34.4897,-120.0458,28,24,0,Las Flores Canyon
34.425052,-117.589813,43,9,0,Phelan - Beekley Roa
34.61205,-112.46321,9,43,0,Prescott Pioneer Par
34.4544,-94.1433,33,19,0,EAGLEMT
34.8306,-92.2594,34,18,0,NLRAP
33.8471,109.9643,20,32,0,商州区中学
33.4022,120.118,15,37,0,盐城电厂
33.3947,120.225,11,41,0,开发区管委会
33.9014,-118.205,4,48,0,Compton
34.0714,-116.3906,39,13,0,Joshua Tree NP - Bla
33.7472,-115.8201,7,42,0,Joshua Tree NP - Cot
33.9828,-111.7987,46,6,0,Humboldt Mountain -
33.4107,-96.9437,7,45,0,Pilot Point C1032
34.0026,-89.799,40,12,0,Coffeeville
33.5531,-86.815,13,39,0,NO. BHAM
33.7397,-81.8536,3,41,0,Trenton
32.63244,35.06565,11,38,0,תחנה:גדרה
32.65363,35.41288,10,74,0,תחנה:גוש עציון
32.85182,35.07873,6,71,0,תחנה:נגב מזרחי
32.831263,35.054671,7,71,0,תחנה:כפר סבא
32.81101,34.998101,5,59,0,תחנה:ניר גלים 1
32.854514,35.091182,4,54,0,תחנה:ק.מוצקין בגין
32.78562,34.98535,16,50,0,תחנה:אחוזה
32.8226,34.9651,11,78,0,תחנה:מודיעין חח"י
32.91575,35.29302,9,71,0,תחנה:קטורה
32.7218,35.1294,4,56,0,תחנה:אתר השמן
32.68114,35.06984,4,42,0,תחנה:אשקלון דרום
32.829758,35.08025,7,45,0,תחנה:בת הדר
33.0014,97,52,0,0,玉树县结古镇
32.6778,109.0311,31,21,0,香溪洞
32.9444,117.3575,23,29,0,百货大楼
32.939,117.3961,16,36,0,工人疗养院
33.3681,120.1631,5,46,0,宝龙广场
32.842297,-116.768326,20,32,0,Alpine
33.289398,-111.292801,26,26,0,Queen Valley
32.7267,-103.1233,52,0,0,Hobbs Jefferson
32.8686,-97.9058,26,26,0,Parker County C76
32.82,-96.86,15,36,0,Dallas Hinton St. C4
33.153077,-96.115561,11,41,0,Greenville C1006/198
33.1787,-84.4052,30,22,0,Georgia Station
32.941002,-79.656998,14,37,0,Cape Romain
32.649722,-16.918333,36,16,0,PT06005
32.807778,-16.886389,25,27,0,PT06008
32.5,80.1161,52,0,0,阿里监测站
31.9286,102.1755,23,29,0,州农科所
32.4535,105.8945,4,48,0,黑石坡
32.395,111.0419,33,19,0,武当山
32.1383,114.0614,3,49,0,审计局
31.955,119.146,25,27,0,消防指挥中心
32.41361,119.458,5,47,0,五台山医院(启用161107)
32.3292,119.8767,6,46,0,王营
32.4639,119.888,9,43,0,留学生创业园
32.0417,120.81,4,48,0,紫琅学院
31.896,121.173,16,34,0,海门市监测站
32.1764,-110.7378,34,18,0,Saguaro Monument
32.009201,-109.389198,52,0,0,Chiricahua NM
32.0411,-106.4092,28,23,0,Chaparral
32.3169,-106.7669,2,50,0,Solano Drive
32.38,-104.2622,52,0,0,Carlsbad
32.353593,-97.436748,5,47,0,Cleburne Airport C77
32.509701,-92.046097,49,0,0,Monroe
32.329111,-90.182722,41,11,0,Jackson NCORE
31.4797,92.0506,29,23,0,那曲会议中心
31.1254,97.1809,30,22,0,昌都地区昌都坝
31.2108,107.4967,9,43,0,凤凰小区
31.2058,107.4611,9,43,0,市政中心
31.7371,116.508,16,36,0,监测大楼
31.7133,118.6439,13,39,0,市教育基地
31.453,121.115,13,39,0,太仓市监测站
30.9028,75.8086,1,31,0,Punjab Agricultural University, Ludhiana - PPCB
30.7636,106.0642,3,49,0,嘉陵区环保局
30.8388,106.1087,1,51,0,市环境监测站
30.698,111.2992,18,34,0,白龙岗
30.5103,117.0549,7,45,0,环科院
30.9219,117.8561,6,46,0,车站新区
30.4397,-84.3483,18,34,0,Tallahassee Communit
29.6514,91.1319,4,48,0,八廓街
29.6632,94.3616,26,26,0,林芝人民医院
29.9972,101.9533,19,33,0,州环保局
30.0125,103.009,1,51,0,大兴526台
30.1259,104.6294,4,48,0,区法院
30.2819,109.4689,4,48,0,州电力总公司
30.2997,113.8531,9,43,0,沉湖七壕
30.2366,119.7183,35,16,0,市政府
30.2311,119.6942,34,10,0,四中
29.719,120.251,7,31,0,图书馆
29.9558,122.3094,19,33,0,普陀东港
29.9944,122.19,16,36,0,临城新区
29.6958,-95.4992,17,35,0,Houston Bayland Park
29.8281,-95.2842,22,30,0,Houston North Waysid
29.9425,-94.0006,17,35,0,SETRPC 43 Jefferson
30.1975,-91.1283,24,24,0,Carville
30.008887,-91.869595,23,24,0,St. Martinville
30.0411,-90.2728,22,27,0,Kenner
30.3681,-87.2708,22,30,0,Pensacola NAS
30.128901,-85.738098,28,24,0,St. Andrews Park
30.2603,-81.4533,17,35,0,Mayo Clinic
29.531814,34.939443,72,646,0,תחנה:א.א.פחם
29.554579,34.94873,81,662,0,תחנה:ניידת5
29.2718,88.8876,27,25,0,日喀则监测站
29.2365,88.8931,33,19,0,日喀则鸿达公司
29.3411,104.7692,5,47,0,春华路
29.33972,104.7228,4,48,0,青杠林路
29.6219,106.65,1,51,0,唐家沱
29.4892,106.468,14,38,0,新山村
29.1389,110.48,2,50,0,永定新区
29.1456,111.7158,10,42,0,白鹤山
29.4402,112.9943,12,40,0,君山区
29.5867,115.9936,23,29,0,庐山气象台(对照点)
29.3025,-103.178101,52,0,0,Big Bend  NP
28.9678699995441,-13.555856,16,33,0,ES1955A
28.623748,77.287205,1,31,0,Patparganj, Delhi - DPCC
28.360699,76.93609,3,29,0,Sector-2 IMT, Manesar - HSPCB
28.639645,77.146262,1,28,0,Pusa, Delhi - DPCC
28.5627763,77.1180053,2,25,0,IGI Airport (T3), Delhi - IMD
28.6556017,77.2859318,3,13,0,East Arjun Nagar, Delhi - CPCB
28.725645,77.749675,10,10,0,Anand Vihar, Hapur - UPPCB
28.825341,78.7213009,7,20,0,Lajpat Nagar, Moradabad - UPPCB
28.6428,112.4067,8,44,0,甘溪港
28.7442,115.813,15,37,0,林科所
28.6844,115.931,4,48,0,省站
28.4231,119.879,9,43,0,余庄前
28.6459,121.273,7,45,0,黄岩环保大楼
28.4544,-81.3814,8,42,0,Winegard Elementary
28.4593139995492,-16.270206,9,40,0,ES2038A
27.712463,85.315704,25,26,0,US Diplomatic Post: Phora Durbar Kathmandu
27.8317,99.7056,15,37,0,迪庆州站
27.8408,102.2714,14,38,0,邛海宾馆
27.725,111.9975,20,84,0,电视发射台
27.6428,113.8381,8,44,0,中医院
27.6178,113.865,6,46,0,安源区政府
27.517403,-99.515244,52,0,0,Laredo C44
27.765335,-97.434247,12,40,0,Corpus Christi West
27.9283,-82.4547,16,36,0,DAVIS ISLAND
28.0542,-80.6283,7,25,0,Melbourne
27.19865833,78.00598056,16,12,0,Sanjay Palace, Agra - UPPCB
26.8821003,80.9302753,14,18,0,Central School, Lucknow - CPCB
26.6883049,88.412668,32,0,0,Ward-32 Bapupara, Siliguri - WBPCB
27.3392,103.7032,37,15,0,监测站
26.6761,118.0966,21,31,0,茫荡山
26.204697,50.57083,35,17,0,US Diplomatic Post: Manama
26.268249,73.0193853,16,13,0,Collectorate, Jodhpur - RSPCB
26.1209,85.3647,17,8,0,Muzaffarpur Collectorate, Muzaffarpur - BSPCB
26.5928,101.5769,8,44,0,河门口
26.5939,104.89,16,36,0,水钢
26.5894,104.8475,18,34,0,民中
26.3003,106.805,26,26,0,桐木岭
26.226226,-98.29107,52,0,0,Mission C43
26.0732,-80.3386,16,36,0,V_VIEW
25.25848,55.309166,33,19,0,US Diplomatic Post: Dubai
25.14389,75.821256,16,16,0,Shrinath Puram, Kota - RSPCB
25.3505986,82.9083074,32,0,0,Ardhali Bazar, Varanasi - UPPCB
25.5941,85.1376,7,19,0,IGSC Planetarium Complex, Patna - BSPCB
25.8567,98.8601,4,48,0,州监测站
25.7759,113.0348,15,37,0,市环保局
25.297436,121.537975,44,8,0,FugueiCape
25.182722,121.529583,29,23,0,Yangming
25.179667,121.689881,30,21,0,Wanli
24.424399,54.433746,29,23,0,US Diplomatic Post: Abu Dhabi
24.8885,102.821,10,42,0,呈贡新区
25.0925,104.9022,28,24,0,场坝街
24.7121,108.2134,23,29,0,东仁乐园
24.3898,109.4883,7,45,0,柳东小学
24.4175,111.5269,37,15,0,环保小区
24.81119444,113.5593889,1,51,0,碧湖山庄
24.795928,113.598061,2,50,0,园林处
24.818055556,118.15694444,4,48,0,溪东
25.060344,121.201811,5,47,0,Dayuan
24.10897,82.64558,32,0,0,Vindhyachal STPS, Singrauli - MPPCB
23.707909,86.41467,17,12,0,Tata Stadium, Jorapokhar - JSPCB
23.8844,106.6527,30,22,0,市中心血站
24.3289,116.1278,4,48,0,嘉应大学
23.717533,120.202842,28,24,0,Taixi
23.002657,72.591912,9,23,0,Maninagar, Ahmedabad - GPCB
23.10844,77.511428,25,7,0,Sector-D Industrial Area, Mandideep - MPPCB
23.1478,109.5681,2,50,0,德智高中
22.9394,112.0369,3,49,0,市监测站
22.9539,112.0539,3,49,0,牧羊
23.3633,116.7244,3,49,0,龙湖子站
23.569031,119.566158,44,8,0,Magong
22.624758,75.675238,27,5,0,Sector-2 Industrial Area, Pithampur - MPPCB
22.5687319,88.2797276,6,23,0,Padmapukur, Howrah - WBPCB
22.7833,108.244,2,50,0,沙井镇街道办
22.2611,113.574,3,49,0,吉大
22.2294,113.495,1,51,0,前山
22.5908,114.263,4,48,0,盐田
22.5978,114.297,4,48,0,梅沙
22.4251,113.628,4,48,0,唐家
22.673081,120.488033,4,48,0,Pingtung
22.755358,121.15045,6,46,0,Taitung
21.8004996,83.8396977,32,0,0,GM Office, Brajrajnagar - OSPCB
22.06047,88.109737,4,24,0,Haldia, Haldia - WBPCB
22.0019,100.7939,7,45,0,景洪市江南
21.4661,109.0981,21,31,0,新市环保局
21.958069,120.788928,49,2,0,Hengchun
21.152875,79.0517531,17,12,0,Opp GPO Civil Lines, Nagpur - MPCB
20.9360711,85.1707021,32,0,0,Talcher Coalfields,Talcher - OSPCB
21.3039,-157.8711,52,0,0,SAND ISLAND 2 - ANUE
21.133894,-101.68025,1,48,0,Estación Facultad de
20.0073285,73.7762427,17,15,0,Gangapur Road, Nashik - MPCB
19.9775302,79.2337086,20,10,0,MIDC Khutala, Chandrapur - MPCB
19.909995209649,99.83000059939,33,19,0,Wiang Phang Kham, Mae Sai
19.9507,110.576,46,6,0,东寨港
20.0053,110.283,17,35,0,秀英海南医院
20.545428,-100.80707,5,45,0,Estación Tecnológico
19.8389439,75.244448,29,0,0,More Chowk Waluj, Aurangabad - MPCB
19.645324,77.6345232,29,0,0,Chandrapur, Chandrapur - MPCB
19.540055,101.048298,52,0,0,Huai Kon, Chaloem Phra Kiat
19.041847,72.865513,3,26,0,Bandra, Mumbai - MPCB
18.431194,-66.141694,14,1,0,Cataño 05
17.72,83.3,32,0,0,GVM Corporation, Visakhapatnam - APPCB
18.279680637193,99.663144703624,19,33,0,Mae Mo, Mae Mo
18.2489,109.5078,28,24,0,河东子站
17.320057,76.820889,23,9,0,Lal Bahadur Shastri Nagar, Kalaburagi - KSPCB
17.4342359,78.4170318,2,30,0,ICRISAT Patancheru, Hyderabad - TSPCB
16.9872867,81.7363176,25,7,0,Anand Kala Kshetram, Rajamahendravaram - APPCB
16.5150833,80.5181667,22,5,0,Secretariat, Amaravati - APPCB
16.445329,102.835251,48,0,0,Nai Mueang, Mueang
15.707848227166,100.1319285287,33,19,0,Pak Nam Pho, Mueang
15.351773,75.140726,28,0,0,Deshpande Nagar, Hubballi - KSPCB
14.6005714623464,-61.0857088147127,7,45,0,FR39017
13.807158152425,100.50631878903,8,33,0,Bang Kruai, Bang Kruai
12.920984,77.584908,2,30,0,Jayanagar 5th Block, Bengaluru - KSPCB
12.9099161,80.1076538,4,28,0,Alandur Bus Depot, Chennai - CPCB
12.680918537711,101.27357778829,20,32,0,Tha Pradu, Mueng
12.7053545,101.1818364,14,38,0,Noen Phra, Mueang
12.1696,-68.99,31,0,0,US Diplomatic Post: Curacao
9.1368079509525,99.320715944922,35,16,0,Makham Tia, Mueang
8.5149093,76.9435879,32,0,0,Plammoodu, Thiruvananthapuram - Kerala PCB
7.010000800002,100.29000030001,13,15,0,Hat Yai, Hat Yai
6.427698,101.823568,27,25,0,Bang Nak, Mueang
6.3306971,-75.5686722,46,6,0,BEL-USBV - Universidad San Buenaventura
4.93784416911561,-52.3209364190869,30,22,0,FR40008
-21.2048366772925,55.5826293841965,29,23,0,FR38016
-23.8443,151.252,40,0,0,Memorial Park
-27.4654,153.087,8,44,0,Cannon Hill
-34.0530556,150.4972222,48,4,0,Oakdale
-33.9333333,151.2419444,6,46,0,Randwick
-72.0117,2.5351,52,0,0,Trollhaugen
60.4253199995396,22.09611,28,24,0,FI00460
60.37288,11.07407,4,48,0,Hurdal25
60.2239299995377,25.10244,13,39,0,FI00781
57.1889,-111.6406,23,29,0,Fort McKay
56.1597834472854,10.1936326865463,12,40,0,DK0056A
56.5102029995063,27.333369,33,19,0,LV0008A
54.746388216707,10.7363947812113,26,26,0,DK0054A
54.6861114494939,25.2108345,18,34,0,LT00002
55.002818,-7.331179,7,45,0,Derry Rosemount
54.32781,8.603474,15,37,0,DESH014
53.1177,8.69506,4,48,0,DEHB013
53.520456,14.257407,15,36,0,DEMV012
53.1325,-117.09111,46,4,0,Steeper
53.1422,-115.1381,10,42,0,Violet Grove
52.8037,5.05051,3,49,0,Wieringerwerf-Medemblikkerweg
52.15369,10.45591,2,50,0,DENI070
52.22174,-2.736665,3,49,0,Leominster
51.6347,3.91662,41,11,0,Zierikzee-Lange Slikweg
52.1116,5.70842,4,48,0,Wekerom-Riemterdijk
51.90158,10.48132,5,47,0,DENI016
51.798629,10.618275,26,26,0,DEST039
51.396095,12.234054,11,41,0,DESN080
51.375988,12.425748,3,49,0,DESN082
51.95,-114.7,33,19,0,Caroline
51.781784,-4.691462,11,41,0,Narberth
51.2545736228328,3.3625358887016,4,44,0,BETN012
50.9453592417478,3.15240159047001,7,42,0,BETM705
50.8148738703176,3.32249431903728,2,46,0,BETN052
50.766751,7.9735,28,21,0,DERP016
51.05625,-2.68345,25,27,0,Charlton Mackrell
50.0922657335736,3.85002659413797,24,28,0,FR06133
49.9439599994713,6.17591,45,7,0,LU0103A
50.3724784851074,12.6153802871704,42,10,0,CZ0KPRB
50.579833984375,13.419506072998,40,12,0,CZ0URVH
50.2391,127.5044,17,35,0,党校
49.7812034347465,1.34508340752352,1,51,0,FR25050
49.719281,5.630398,2,46,0,BETN132
49.7771415710449,17.5419464111328,25,27,0,CZ0TCER
49.2119445794691,18.77111435,1,51,0,SK0020A
49.14139,-123.10833,4,48,0,Richmond South
49.6363812210033,-1.62666931648363,3,49,0,FR21035
48.8572835390584,7.31417287482956,35,17,0,FR16031
48.4930125168175,7.12980264591687,23,15,0,FR16302
48.9193627535547,8.15845449460929,15,37,0,FR16017
49.0684356689453,13.6148014068604,44,8,0,CZ0CCHU
48.9422225994684,19.59223175,49,3,0,SK0002R
48.783332819468,20.99223137,45,7,0,SK0042A
48.4658,129.4942,20,32,0,汤旺河国家公园
48.7833,-123.1333,40,11,0,Saturna
48.950699,-122.554398,2,39,0,Custer-Loomis (SO-AQ
48.4128,-92.8292,24,27,0,Voyageurs NP
48.5134875186338,-2.74952748902167,27,25,0,FR19061
47.9047,88.1214,25,20,0,小东沟
47.6528,-52.8167,28,24,0,St. John's
48.1108129462492,-1.68282300489394,17,35,0,FR19010
47.0673852211321,8.46333371888661,34,4,0,CH0005R
47.4069895689662,9.39431174673672,33,5,0,CH0019A
47.518013,10.404232,25,27,0,DEBY122
47.0911102294647,17.90112114,7,45,0,HU0034A
47.5133323694653,21.62444496,33,19,0,HU0023A
47.2753,130.261,3,49,0,斯达机电
46.7686,-75.4319,32,20,0,Mont-Saint-Michel
46.4783,-63.9869,18,34,0,WELLINGTON
46.2406,-63.1306,23,29,0,CHARLOTTETOWN
45.8310745543702,1.25687782977583,1,1,0,FR35003
45.9614268554258,4.46571392356781,37,15,0,FR20049
46.0707,122.0931,2,50,0,北滨河
45.4125,-71.8744,1,51,0,Parc Cambron
45.6819,-62.6953,13,39,0,PICTOU
44.82112,20.459113,14,37,0,RS0032A
45.0517,-72.8617,25,27,0,Frelighsburg
45.0892,-67.0786,12,40,0,ST ANDREWS
43.9335199525261,5.71170417210011,33,19,0,FR24039
44.52612,-109.016733,26,15,0,Cody Mobile
43.5997495987433,7.094723434072,17,35,0,FR24007
43.8228,126.4978,3,49,0,电力学院
43.48256,-110.745261,4,36,0,Jackson Mobile
43.61,-83.36,20,32,0,Unionville
43.561043,-70.207321,7,44,0,Cape Elizabeth
43.3726749994639,-5.872797,15,35,0,ES1572A
43.4391699994639,-4.85,19,15,0,ES0008R
43.1444444394642,-2.96333333,4,47,0,ES1349A
42.4053799994652,1.13,2,49,0,ES1248A
42.8947,125.1358,16,36,0,环保局
42.8775,129.3675,19,33,0,朝阳川镇医院
42.9288,-109.788,18,30,0,Pinedale
42.82231,-106.36501,19,33,0,Casper Gaseous
42.86183,-71.878626,24,28,0,Miller State Park
43.0119399994643,-4.13556,3,38,0,ES1530A
42.2814,118.9233,14,38,0,松山一中
41.7347,123.2444,4,48,0,沈辽西路
41.7381,125.9486,17,35,0,铁路
41.9419,126.4078,12,40,0,环保局
41.849433,-93.697616,13,39,0,SHELDAHL
41.965,-87.8761,9,35,0,SCHILPRK
42.2283,-83.2092,24,28,0,ALLEN PARK
41.6157948664667,0.615725897,3,48,0,ES1225A
41.223074,13.570481,28,23,0,Gaeta
41.0399999994681,21.3564,7,40,0,MK0037A
41.1933,80.2956,32,20,0,艺术中心
41.0112,117.9384,8,41,0,离宫
41.1442,123.0485,7,45,0,太平
41.3694,-111.0419,18,34,0,Murphy Ridge
41.4271,-80.1451,5,47,0,M.K. Goddard
40.9102799994684,-3.46667,23,28,0,ES1802A
40.8452,111.659,6,46,0,兴松小区
40.7688,114.9032,8,44,0,世纪豪园
40.1438,116.72,3,49,0,顺义新城
40.7514,120.8392,4,48,0,化工街
40.776943,-124.177498,51,1,0,Jacobs
40.483799,-109.906197,6,46,0,Whiterocks
40.2778,-105.5453,17,35,0,Rocky Mountain NP
40.816,-85.6611,8,44,0,Salamonie Reservoir
40.7208,-77.9319,6,42,0,Penn State
40.33733,-76.383446,15,37,0,Lebanon
40.5697222194693,-6.22388888,18,32,0,ES1990A
40.3688899994699,-4.39694,20,29,0,ES1808A
40.6647199994691,-4.70083,19,31,0,ES2029A
40.7808299994688,-3.7025,6,44,0,ES1805A
40.5933299994693,-3.50306,10,39,0,ES1838A
40.2869399994701,-3.22222,28,22,0,ES1806A
39.8302359994716,2.9007194,16,33,0,ES2065A
39.8752799994714,4.31639,24,26,0,ES0006R
39.643,118.144,3,49,0,雷达站
40.0625,124.3303,10,42,0,江湾东路
39.595798,-110.769997,14,38,0,P2
39.991389,-75.080833,9,43,0,NEW
39.923889,-8.891667,50,2,0,PT02019
38.9389,100.4497,36,16,0,科委
39.3179,112.4254,4,48,0,区政府
39.2133,117.1837,8,45,0, 淮河道
38.9194,117.157,5,48,0,团泊洼
39.16969,117.2099,3,50,0,中山北路
39.1311,121.7481,3,49,0,金州
39.0511,121.7769,2,50,0,开发区
39.234402,-121.055603,43,9,0,Grass Valley
38.9938899994746,-3.93778,3,47,0,ES1857A
37.9311,102.6219,15,37,0,监测站
37.9097,114.3541,29,23,0,封龙山
38.278849,-122.275024,2,50,0,Napa - Napa Valley C
38.1825,-85.5744,2,47,0,Carrithers Middle Sc
37.9936111094788,-1.14472222,7,43,0,ES1633A
37.739,115.6689,3,49,0,市城管局(181124启用)
37.825,120.747,14,22,0,蓬莱环保局
37.2267,-121.9786,2,50,0,Los Gatos
37.55652,-77.40027,16,36,0,MATH & SCIENCE CTR
37.3125,-7.678611,38,14,0,PT05012
37.1387999994828,-1.8422,9,41,0,ES2040A
37.1152,79.9485,33,19,0,地区站
36.881,118.746,11,41,0,监测站
36.7225,119.0586,8,44,0,潍坊七中
36.7397499994849,-5.74372,19,31,0,ES1821A
36.9622999994837,-4.84483,13,36,0,ES1898A
36.7295599994849,-4.46553,12,37,0,ES1751A
35.7067,107.6364,37,15,0,市环保局
36.0822,111.5169,18,34,0,工商学校
36.0875,111.5025,3,49,0,市委
35.76806,115.0061,3,49,0,濮水河管理处
36.1942,117.1436,2,50,0,监测站
35.878,120.005,33,8,0,JN子站
36.1851,120.3905,1,51,0,李沧区子站
35.755,-118.4175,10,28,0,Kernville
35.750599,-94.669701,6,46,0,STILWELL CASTNET & N
36.1797,-94.1167,1,51,0,SPRNGDLE
35.8325,-93.2192,34,18,0,DEER
36.1408,-78.7692,4,24,0,BUTNER
35.0003,102.905,2,50,0,监测站
34.9058,108.9344,3,49,0,新区管委会
35.0611,111.0233,3,49,0,禹都开发区
35.4934,112.835,8,44,0,白云商贸
34.3528,107.3906,4,48,0,陈仓环保局
34.7772,111.1928,10,42,0,市政府
34.7519,119.3608,2,50,0,胡沟管理处
34.5961,-120.6303,5,4,0,VAFB South Base
34.402802,-119.457497,8,44,0,Carpinteria
34.822498,-109.891899,25,27,0,Petrified Forest NP
34.5286,-86.9706,9,40,0,DECATUR
34.615299,-80.198898,12,39,0,Chesterfield
33.8715,109.9154,18,34,0,监测站
33.5653,114.0322,2,50,0,广电局
34.0339,113.8172,3,49,0,市一中
33.712299,-111.852699,24,28,0,Pinnacle Peak Club H
33.6906,-84.2731,11,41,0,South DeKalb
32.78685,35.02026,6,53,0,תחנה:כפר סבא
32.64946,34.98675,4,44,0,תחנה:אחוזה תחבורתית
32.74263,35.09444,6,51,0,תחנה:כ.חסידים
32.80078,34.99066,5,48,0,תחנה:אשקלון
32.88966,35.09703,10,63,0,תחנה:חולון
32.791929,35.02111,2,58,0,תחנה:יד אבנר
33.3261,105.0822,37,15,0,汉王镇固水子
33.0323,107.007,2,50,0,南郑大河坎水厂
32.996,113.996,3,49,0,天方二分厂　
32.8603,115.8556,3,49,0,开发区
32.9673,117.3536,6,46,0,淮上区政府
32.8985,117.3065,10,42,0,高新区
32.805818,-97.356567,14,36,0,Ft. Worth Northwest
32.0564,112.1392,4,48,0,樊城新华路
32.3153,118.3094,10,42,0,老年大学
31.89708,121.1518,8,22,0,社会福利院
31.893889,-106.425556,5,47,0,Skyline Park C72
32.344008,-95.415751,16,36,0,Tyler Airport Reloca
31.4846,92.0657,30,22,0,那曲监测站
31.1278,97.1804,30,22,0,昌都监测站
31.4747,104.7778,9,43,0,富乐山
31.8542,106.7658,10,42,0,丽阳花园
31.2797,107.5272,18,34,0,达州职业技术学院
31.215,107.525,13,39,0,市环境监测站
31.7712,116.5661,20,32,0,开发区
31.67,120.758,7,45,0,海虞子站
31.1907,121.703,7,45,0,浦东川沙
31.0283,103.613,22,30,0,灵岩寺
31.1208,104.4219,3,49,0,东山公园
30.696,111.268,11,41,0,点军区
31.03389,112.1908,13,39,0,西山林语
30.5514,114.2511,4,48,0,汉阳月湖
30.9075,113.942,5,47,0,东城区
30.6617,117.4697,1,51,0,池州学院
31.088002,-97.679734,15,37,0,Killeen C1047
29.6376,94.3681,33,19,0,林芝监测站
30.0506,103.8986,23,29,0,蟆颐观
29.8272,106.379,15,38,0,缙云山
30.3714,114.8989,2,50,0,赵家坝
29.7207,118.3236,14,38,0,黄山东路89号
29.6256,-95.2672,12,40,0,Houston Monroe C406
29.7681,-95.2206,9,43,0,Houston East C1
29.261,91.7706,11,41,0,山南人民医院
29.3628,104.7547,15,37,0,大塘山
29.3547,110.5594,4,48,0,未央路
29.077,119.647,3,49,0,十五中
29.275299,-98.311699,18,34,0,Calaveras Lake C59
28.4586,119.93,4,48,0,莲都小学
28.6542,121.419,12,40,0,台州环保大楼
28.38309599955,-16.57067,17,31,0,ES1954A
28.4983799995488,-13.86083,27,22,0,ES1978A
27.738703,85.336205,31,21,0,US Diplomatic Post: Embassy Kathmandu
27.8094,99.7136,9,43,0,质量技术监督局（20180930启用）
27.8094,102.3419,19,33,0,青龙寺
27.583,110.0394,21,31,0,市委党校
27.7044,111.9892,9,43,0,市政府
27.8728,112.8937,2,50,0,江麓
27.6231,113.8447,5,47,0,市政府车库
27.8344,114.9831,7,45,0,飞宇
27.8928,-82.5383,32,20,0,GANDY
27.8317659995557,-17.921671,27,22,0,ES2024A
27.3361,103.7225,24,28,0,环保局
26.6343,106.7487,3,49,0,燕子冲
26.5017,101.7453,16,36,0,仁和
26.5892,104.8,16,36,0,窑上
26.53111111,107.8908333,16,36,0,凯里学院
26.0931,119.58,19,33,0,九龙
25.5364,103.8,23,29,0,烟厂办公区
25.2708,110.3089,5,47,0,龙隐路小学
25.7325,-80.162201,11,37,0,Rosenstiel
24.441,98.578,7,45,0,芒市建设局
25.0492,101.538,5,47,0,市经济开发区
24.6967,108.1009,16,36,0,市疾控中心
24.4674,117.6336,2,51,0,九湖
23.9011,106.6103,26,26,0,市监测站
24.3406,109.3886,14,38,0,河西水厂
23.7233,114.6892,11,41,0,老城
24.2654,116.1248,8,44,0,环境监控中心
23.968842,120.967903,17,35,0,Puli
23.756389,120.677306,19,33,0,Zhushan
24.099611,120.677689,11,41,0,Dali
23.05361111,113.7819444,1,51,0,东城主山
23.06,113.7480556,1,51,0,莞城梨川
23.01277778,113.7944444,2,50,0,东城石井
22.96583333,113.7383333,1,51,0,南城西平
22.3708,107.3701,17,35,0,城南新区
22.7267,114.24,1,51,0,龙岗
22.523108,120.561175,5,47,0,Chaozhou
22.0225,100.8017,30,22,0,景洪市江北
21.7631,108.3511,5,47,0,防城镇政府
19.304501021455,97.971525255487,31,21,0,Chong Kham, Mueang
18.419425,99.727046,7,45,0,Ban Dong, Mae Mo
18.12614,100.1654,1,51,0,Na Chak, Mueang
14.6780998386226,-60.9391037603444,2,50,0,FR39016
13.727559345309,100.48660439296,1,51,0,Intarapitak Rd., Thon Buri
4.84816101287231,-52.3238110279961,36,16,0,FR40007
-27.6125,153.136,31,21,0,Springwood
-33.9177778,151.1347222,1,51,0,Earlwood
57.0466523886598,9.93087546594131,28,24,0,DK0053A
56.3097228995048,22.33139038,17,35,0,LT00023
55.6899999995005,21.17946,7,45,0,LT00033
55.2799999994977,23.95778,9,43,0,LT00043
54.924967,8.308208,20,24,0,DEUB001
53.638291,9.998009,7,45,0,DEHH033
53.817775,12.064708,4,47,0,DEMV004
54.323514,13.342138,8,43,0,DEMV026
54.0924987794903,24.28972816,28,23,0,LT00052
53.480927,9.857223,13,39,0,DEHH050
53.396348,12.463929,11,39,0,DEMV024
53.201694,-105.75203,29,23,0,PRINCE ALBERT
53.48152,-2.237881,35,17,0,Manchester Piccadilly
52.1342,-122.1528,33,19,0,Williams Lake Column
51.938056,-10.240833,50,0,0,IE0001R
50.8580305936746,4.2883363663059,1,48,0,BETB011
50.9023,5.88175,21,31,0,Wijnandsrade-Opfergeltstraat
50.654066,10.769534,13,31,0,DEUB029
51.317905,12.297411,2,50,0,DESN059
50.731478,13.75145,6,46,0,DESN052
50.73957,-1.826744,35,17,0,Bournemouth
50.1294237654576,1.6108320180246,2,49,0,FR18039
50.610484351663,1.99144820390604,3,48,0,FR10132
50.6167184021922,3.45762442718173,1,47,0,BETN060
50.16443,9.399441,12,40,0,DEHE026
50.431322,12.611125,1,51,0,DESN049
50.428488,12.953459,2,50,0,DESN053
50.2422409057617,17.1901798248291,14,38,0,CZ0MJES
50.2486,127.4961,14,38,0,交通局　
49.3583143914495,6.15694515952111,2,49,0,FR01020
49.8611,-119.475,36,16,0,Kelowna College
49.0478172302246,18.0078277587891,18,34,0,CZ0ZSNV
49.0422210694687,22.25973129,27,25,0,SK0006R
47.968753,11.220172,27,25,0,DEBY109
47.6919439994656,16.575008,4,25,0,HU0035A
47.7317,128.9094,5,47,0,林管局
47.3455490718848,5.00222374385535,3,49,0,FR26010
47.5619430494654,18.96000862,4,48,0,HU0036A
47.3227,123.9483,6,46,0,农牧车辆厂
46.8032,130.3648,5,47,0,十一中
45.4608687180178,5.18107831692355,24,28,0,FR27010
45.4790555550188,16.7806666666667,12,36,0,HR0002A
45.5828,84.8897,11,41,0,南林小区
45.39916,-122.7455,32,18,0,Portland Near Road
45.61394,-61.36235,30,22,0,PORT HAWKESBURY
44.7347,9.3669,41,10,0,CORTE BRUGNATELLA
45.238642,19.835704,6,44,0,RS0031A
44.8969,82.0806,6,46,0,市环保局
45.2948,131.0103,1,47,0,白酒厂　
45.366151,-106.48982,28,24,0,Birney
44.789398,-93.512497,9,43,0,Shakopee
43.9318,12.6273,8,43,0,SAN CLEMENTE
44.5952,129.5902,2,50,0,第一医院
43.881401,-104.191902,13,39,0,NewCastle
44.3106,-84.891899,18,34,0,HOUGHTON LAKE
43.4413961476087,1.82194509294553,5,47,0,FR12031
43.5705984666914,3.91155220794732,5,47,0,FR08017
43.3313927085815,5.11777403885164,8,44,0,FR02021
43.7020570445023,7.28626221895196,11,41,0,FR24036
43.768,87.6046,15,37,0,收费所
43.84,125.2786,12,40,0,邮电学院
43.8694,125.325,3,49,0,园林处
43.5588499994638,-5.92748,10,41,0,ES1424A
43.4702185970344,-1.55384289640006,31,21,0,FR31043
42.9409,89.191,28,24,0,市环保局
42.542777769465,-6.58472222,20,27,0,ES1790A
42.9519444394644,-3.47527777,5,45,0,ES1987A
41.924656325342,8.73569392987881,20,31,0,FR41001
42.159947,11.742631,6,34,0,S.Agostino
42.0228,121.6722,2,50,0,东苑
42.0486,121.6592,5,47,0,玉龙新城
41.8469,123.81,1,51,0,望花区
41.7547,-87.7136,11,37,0,CHI_COM
41.7666666594664,-2.46666666,5,45,0,ES1643A
41.0831,123.0156,2,50,0,明达新区
41.529999,-90.587502,6,46,0,Davenport, 10th & Vi
41.083099,-75.3283,3,49,0,Swiftwater
40.961015,-73.13913,9,15,0,Flax Pond
41.3011,-72.9028,8,17,0,New Haven - Criscuol
40.9555555494683,-4.11055555,12,38,0,ES1967A
40.6532,109.8756,9,43,0,市环境监测站
40.7579,111.651,13,39,0,呼市一监
40.8115,114.8814,8,44,0,五金库
40.715,120.8478,4,48,0,新区
40.8333,121.045,9,43,0,开发区
40.1503,124.4256,4,48,0,临江后街
40.7955,-111.9309,9,43,0,Rose Park
40.381901,-80.1856,20,2,0,South Fayette
39.7899499994717,3.07413,5,46,0,ES1093A
39.8909199994714,4.252975,19,27,0,ES1095A
39.7153,76.1861,27,25,0,市人民政府
39.7294,98.5023,15,37,0,富康家世界子站
40.1114,113.2803,17,35,0,供排水公司
39.9419,119.5369,5,47,0,建设大厦
39.469225,-119.775393,3,49,0,South Reno
39.54092,-119.746764,5,47,0,Sparks
39.8392,-104.9489,31,21,0,Welby - 78th Ave. &
39.701099,-75.860001,5,38,0,Fair Hill
38.843,105.6975,6,46,0,盟环保楼
38.8756,115.442,5,47,0,胶片厂
38.885,121.56388889,3,49,0,星海三站
39.1389,-121.6175,8,8,0,Yuba City
39.3275,-94.9513,9,43,0,Leavenworth-U.S. Pen
39.12886,-84.50404,1,51,0,Taft
39.0284,-76.8172,3,49,0,Beltsville
39.305199,-75.797203,3,40,0,Millington
38.0108,112.434,2,51,0,上兰
38.2991,116.8854,11,41,0,沧县城建局
37.9508,-121.2675,3,13,0,Stockton - Hazelton
37.9536,-87.29,7,44,0,Dayville
38.3081,-85.8342,9,41,0,New Albany
38.2286,-85.6544,1,51,0,Cannons Lane
38.076944,-8.798611,47,4,0,PT04002
37.4514,105.0197,3,49,0,沙坡头消防站
37.374,120.399,19,21,0,招远环保局
37.864767,-122.302741,31,21,0,Berkeley Aquatic Par
37.747445,-113.055524,23,29,0,Enoch
37.67696,-95.47594,6,46,0,Chanute
36.47,-83.83,4,48,0,Speedwell
36.0714,111.5028,5,47,0,技工学校
36.1912,113.1569,7,45,0,德盛苑
35.7672,115.0628,11,41,0,油田运输公司
35.767,115.0772,12,40,0,油田物探公司
36.2289,117.6789,3,49,0,技术学院
36.1032,120.3664,1,51,0,四方区子站
35.0994,109.0656,7,45,0,党校
35.0573,118.3418,10,42,0,沂河小区
35.0622,118.2939,11,24,0,鲁南制药厂
35.356667,-119.062778,2,14,0,Bakersfield - Califo
34.9739,-80.5408,1,29,0,MONROEMS
34.3469,106.005,20,32,0,仙人崖
34.3017,107.0708,5,47,0,竹园沟
34.2761,117.167,4,48,0,黄河新村
34.29,117.1814,7,45,0,鼓楼区政府
34.1795,-93.0988,15,37,0,Caddo Valley
33.975,116.8008,1,51,0,监测站
33.965,118.283,5,47,0,市供电局(启用161107)
33.583099,-117.072197,10,42,0,Temecula (Lake Skinn
32.78943,35.00168,9,50,0,תחנה:רוממה
32.73827,35.03613,5,49,0,תחנה:נאות הכיכר
32.814143,35.077715,2,61,0,תחנה:גבעת המורה
32.79232,35.052037,4,71,0,תחנה:ניר גלים 1
32.856675,35.091557,5,63,0,תחנה:לוזית
32.64408,35.35174,9,77,0,תחנה:גוש עציון
32.6319,116.8306,1,51,0,八公山区政府
32.6706,-94.1681,10,42,0,Karnack C85
33.007801,-80.964996,1,9,0,Ashton
32.0723,118.778,3,49,0,山西路
32.3761,119.389,2,50,0,邗江监测站
31.737,119.579,5,47,0,金坛市自来水公司
31.381,120.999,10,42,0,震川中学
31.671,120.721,10,37,0,兴福子站
31.7878,-106.6828,6,46,0,Santa Teresa
30.7819,111.3296,11,41,0,夷陵区
30.4753,114.1525,8,44,0,沌口新区
30.4133,114.8131,7,45,0,凡口开发区
30.9742,118.7386,7,45,0,敬亭山子站
30.9431,118.7175,3,49,0,开发区子站
30.1506,104.6356,5,47,0,资阳中学
30.049,119.946,27,12,0,富春二小
30.0203,122.122,34,18,0,定海檀枫
29.68639,-95.294724,2,50,0,Houston Park Place C
29.5467,103.7705,2,50,0,花湖湾
28.9881,111.6892,4,48,0,鼎城区玉霞(启用171130)
29.3864,117.3097,14,38,0,王岗中学
28.9745,118.855,3,49,0,衢州学院
28.7994,115.742,9,43,0,武术学校
28.4579539995493,-16.26333,11,35,0,ES2000A
27.8333,-97.5558,14,37,0,Corpus Christi Tulos
26.8802,100.2497,3,49,0,丽江古城
26.5155,106.6948,1,51,0,中院村
25.8471,114.8905,1,51,0,华坚鞋城
24.428,98.5842,10,42,0,德宏州监测站
25.0992,104.8811,35,17,0,坪东大道
25.0311,117.0151,12,40,0,龙岩学院
24.432133,118.312256,44,8,0,Kinmen
23.8822,100.0869,16,36,0,市环保局
24.3702,102.5389,1,51,0,玉溪一中
24.299,109.4221,11,41,0,市四中
24.3663,109.3957,6,46,0,市九中
23.913,120.685306,29,22,0,Nantou
22.357222222222223,114.12972222222221,34,18,0,Kwai Chung
22.371666666666666,114.11444444444444,35,17,0,Tsuen Wan
22.391111111111112,113.97666666666667,25,27,0,Tuen Mun
22.28888888888889,113.94361111111111,10,42,0,Tung Chung
22.279999999999998,114.185,49,3,0,Causeway Bay
22.281944444444445,114.15805555555556,48,4,0,Central
22.322499999999998,114.16833333333334,49,3,0,Mong Kok
21.8586,111.9786,4,48,0,鸳鸯湖
21.2567,110.4558,2,50,0,坡头区环保局
20.6924,-101.36487,13,33,0,Estación Secundaria
19.909242469583,99.823357055937,30,22,0,Wiang, Mueang
20.565228,-101.18824,3,45,0,Estación Nativitas
18.2681,109.4964,30,22,0,河西子站
14.6107421035951,-61.0026146509316,41,11,0,FR39009
13.119234177302,100.91849922412,21,31,0,Thung Sukhla, Si Racha
6.5499937928872,101.27999862621,24,28,0,Sateng, Mueang
-34.3075,150.58,12,40,0,Bargo
60.979069999545,25.59109,31,20,0,FI00867
56.0083351095027,21.88694763,6,45,0,LT00053
54.7152786294941,25.28944397,14,38,0,LT00003
53.353889,-6.278056,20,32,0,IE0028A
52.473192,13.225144,6,46,0,DEBE032
50.949863820006,1.76916907000351,10,38,0,FR10025
51.058332,3.729298,1,48,0,BETR701
50.930328,8.191932,19,33,0,DENW065
50.659097,13.465078,4,48,0,DESN074
50.449166359944,2.90000428226453,1,49,0,FR28010
50.499955,11.134593,17,35,0,DETH027
50.4217,124.1303,31,21,0,公安局
49.416884,6.552037,3,49,0,DESL019
49.5026092529297,18.5385608673096,10,42,0,CZ0TBKR
49.2008,-123.9939,12,40,0,Nanaimo Labieux Road
48.8819236211318,2.50722490743611,18,34,0,FR04100
48.8163672245725,2.51750163428644,15,37,0,FR04101
48.8589975104964,2.35099889637488,8,30,0,FR04143
48.7266129231085,4.5947838635901,2,50,0,FR14029
48.326013,10.903051,2,50,0,DEBY099
47.306667329465,18.92000198,7,45,0,HU0032A
46.77417,-71.36972,4,48,0,Parc Primavere
46.604,-68.4135,27,25,0,Ashland
45.809976895008,2.0599986432372,31,21,0,FR35012
45.6289,122.8444,19,31,0,洮北区环保局
45.496641,-122.602877,6,43,0,Portland - SE Lafaye
44.6582,10.2894,2,49,0,BADIA
45.0061,-65,9,43,0,AYLESFORD MOUNTAIN
44.0883193867536,6.98917138818795,3,5,0,FR24014
43.962,87.6444,8,44,0,米东区环保局
43.6953675407432,3.8008168828739,2,49,0,FR08018
43.3306,-81.7425,1,51,0,Grand Bend
43.608528,-72.98246,1,51,0,RUTLAND
43.660248,-70.268967,4,48,0,Portland - Deering O
43.2130555494641,-3.13444444,1,50,0,ES1598A
43.2505555494641,-2.155,16,35,0,ES1599A
42.572593,12.961982,18,34,0,Leonessa
42.8172,93.5128,28,24,0,地区监测站
42.486668,-110.099167,3,49,0,Big Piney
43.075371,-70.748017,4,48,0,Portsmouth
42.2217,123.7153,6,46,0,金沙江路北
41.6778,-108.0242,7,45,0,Wamsutter
42.2869,-89.9997,27,25,0,Stockton
41.7847,-72.6297,3,49,0,East Hartford
41.7627799994664,-1.14333,12,39,0,ES1418A
41.1120908514679,1.151824406,10,41,0,ES1117A
41.3921574584672,2.009802277,16,35,0,ES0694A
41.482016278467,2.188296656,5,46,0,ES0584A
40.9161,117.9664,5,47,0,铁路
41.0931,123.011,2,50,0,太阳城
41.3369,123.7528,7,45,0,溪湖
41.4942,-71.4219,5,47,0,Narragansett
41.232222,-8.713056,19,33,0,PT01025
41.252222,-8.660556,3,49,0,PT01031
41.274167,-8.376111,8,43,0,PT01044
40.7612,111.717,8,44,0,化肥厂生活区
40.246992,-76.846988,7,45,0,Harrisburg
40.2722,-76.6814,5,47,0,Hershey
39.6330999994723,2.63044,7,44,0,ES1829A
39.8337899994716,3.1443,11,40,0,ES1517A
39.5458799994726,2.69971,3,48,0,ES1995A
39.8396199994716,3.02705,4,47,0,ES1518A
39.7473099994719,3.01488,2,49,0,ES0296A
39.5747,116.7729,8,44,0,开发区
39.938,119.5966,14,38,0,文明里(启用171012)
39.617,122.011,25,10,0,东山公园
40.0767,-75.0108,5,44,0,NEA
39.0877,117.307,5,47,0,跃进路
38.863888889,121.625,5,47,0,傅家庄
39.145733,-123.202995,29,23,0,Ukiah District Offic
39.310833,-76.474444,3,49,0,Essex
38.812069,-76.744186,5,38,0,PG Equestrian Center
38.5253,102.1864,7,45,0,市委党校(启用180727)
38.2839,109.7289,11,41,0,实验中学
37.8873,112.522,2,50,0,尖草坪
37.897499,-97.492073,13,39,0,Sedgwick
38.02,-8.6975,46,5,0,PT04004
37.364,120.394,16,23,0,招远教育局
37.6825,-121.4406,23,29,0,TracyAP
37.3945199994816,-6.0031,11,39,0,ES0890A
37.1934199994825,-1.9854,16,32,0,ES1996A
36.5819,101.834,10,42,0,四陆医院
36.838,118.0448,3,49,0,东风化工厂
36.799,119.976,8,44,0,2号
36.913,121.531,1,51,0,乳山市环保局
37.10258,-107.870219,1,43,0,Ute 3
36.2866,100.6188,10,42,0,共和县恰卜恰镇
36.0725,103.841,6,46,0,生物制品所
36.1417,106.2319,18,34,0,马园
36.253,120.014,1,51,0,胶州一中
36.141875,-115.078742,4,48,0,Jerome Mack
36.0183,-83.8761,2,41,0,SPRINGHILL
36.1362299994882,-5.45343,20,29,0,ES1664A
35.0147,110.9956,7,45,0,运城中学
34.9162,113.6113,5,48,0,岗李水库
35.0544,-119.4039,24,28,0,Maricopa - Stanilaus
35.0186,-106.651901,1,51,0,South Valley
34.91263,-80.874283,6,34,0,Catawba Indian Natio
34.8731,108.9589,6,46,0,新区兰芝公司
34.7187,113.727,4,46,0,经开区管委
34.4044,-118.81,1,51,0,Piru - Pacific
34.243889,-113.558611,7,45,0,Alamo Lake
34.7561,-92.2758,3,49,0,PARR
34.751801,-82.256699,2,48,0,Hillcrest
33.8561,115.7831,7,45,0,三国揽胜宫
33.802417,-118.219933,7,43,0,Long Beach - Hudson
33.4883,-111.855003,1,51,0,Senior Center
33.474499,-111.805099,1,51,0,LEHI
33.507999,-111.837799,1,51,0,High School
32.78866,35.08511,5,57,0,תחנה:נגב מזרחי
32.81644,35.00167,5,48,0,תחנה:מודיעין חח"י
32.76994,35.04226,5,50,0,תחנה:תחנה ניידת ברכבת 2
32.6389,110.7258,1,51,0,刘家沟
33.027,112.5573,4,48,0,气象站
32.7639,116.8028,2,50,0,潘集区政府
31.9025,102.2218,17,35,0,州监测站
31.87888889,106.7513889,7,45,0,苏山坪
32.6028,116.8556,1,51,0,谢家集区政府
32.0572,118.749,6,46,0,草场门
32.105,118.907,8,44,0,仙林大学城
32.0319,-96.3992,4,48,0,Corsicana C1051
32.4069,-86.2564,19,20,0,MONTG
31.7797,116.5068,5,47,0,朝阳厂
31.371,119.794,13,39,0,宜园
31.2472,120.561,4,48,0,上方山
31.388,120.953,11,41,0,昆山实验小学
31.2284,121.533,3,49,0,浦东新区监测站
31.422,121.14,19,32,0,科教新城实小
31.7467,-106.402802,37,15,0,Ascarate Park Southe
30.8023,106.0789,3,49,0,南充市委
30.6197,114.2836,4,48,0,汉口花桥
30.9222,117.8078,5,47,0,市公路局
30.8811,117.7442,19,33,0,市第九中学
30.8475,-85.6044,7,45,0,Bonifay
29.6588,90.9798,27,25,0,区辐射站
29.6322,-98.565002,12,40,0,Camp Bullis C58
29.8025,-95.1256,3,49,0,Channelview C15
30.0842,-84.1617,14,38,0,St. Marks Wildlife R
29.3578,113.1094,11,41,0,南湖风景区
29.4758,113.2621,5,47,0,云溪区
28.9404,118.871,1,51,0,环保大楼
28.9664,118.871,12,40,0,实验学校
28.1944,113.0014,3,49,0,火车新站
28.2642,117.0564,4,48,0,新监测站
28.2169,116.9983,4,48,0,三川水表
27.8953,102.2311,20,32,0,长安
27.9164,112.4876,6,46,0,韶山
27.8667,113.167,2,50,0,市四中
27.8036,114.3442,2,50,0,槟榔水业(对照点)
27.8328,114.9289,2,50,0,第二水厂
26.57098,101.68912,7,45,0,弄弄坪
26.2331,111.6236,28,24,0,零陵区环保局
26.2378,117.6028,18,34,0,三元区政府
26.153611,119.9525,21,31,0,Matsu
26.5475,-81.9797,8,44,0,Cape Coral Fire Stat
25.1328,99.1711,5,47,0,市环保局
25.3167,110.4144,20,32,0,电子科大尧山校区
25.8481,114.9461,1,51,0,气象台
25.0359,102.638,8,44,0,碧鸡广场
24.4072,111.5622,24,28,0,政协大楼
24.953278,121.221667,25,27,0,Zhongli
24.3304,109.4108,12,40,0,环保监测站
23.3594,104.2533,33,19,0,州水务局
23.1617,112.565,4,48,0,坑口子站
22.44527777777778,114.02277777777778,25,27,0,Yuen Long
21.6828,110.8592,10,42,0,高岭
20.657939,-101.34915,27,26,0,Estación Teódula
20.518317,-100.81591,4,39,0,Estación Seguridad P
13.173601347345,100.92769331172,1,51,0,Si Racha, Si Racha
7.8816363400512,98.394290593566,28,19,0,Talat Yai, Mueang
59.92295,10.76573,25,23,0,Sofienbergparken
54.412987,11.215994,2,50,0,DESH013
54.436985,12.721938,7,37,0,DEUB028
54.7831,-127.1775,48,0,0,Smithers St Josephs
53.83017,8.80122,5,47,0,DENI059
53.851111,-9.299722,32,18,0,IE0118A
54.066111,-6.883056,9,41,0,IE0090A
53.302352,11.362965,4,47,0,DEMV017
52.614193,1.301976,4,48,0,Norwich Lakenfields
50.7894439697266,14.0867986679077,28,24,0,CZ0USNZ
50.221941,8.446079,19,33,0,DEHE052
49.4424377204107,1.09368987526268,17,35,0,FR25036
49.653465,8.817251,14,38,0,DEHE028
49.5733947753906,15.0802783966064,7,45,0,CZ0JKOS
49.2261,119.7594,30,22,0,区环保局
48.8813919489129,2.27805569530438,23,29,0,FR04017
48.8916699435252,2.34666901670543,10,42,0,FR04004
48.5492988706458,5.46068793225859,4,14,0,FR30038
47.0828022774875,2.40532900475843,12,40,0,FR34032
47.2345927602017,6.07647407636968,30,22,0,FR82005
47.1052780194647,17.55666542,3,49,0,HU0037A
47.5419439994654,19.146122,19,33,0,HU0042A
46.949699,-103.514397,25,23,0,Theodore Roosevelt N
47.035,-84.3811,31,21,0,Algoma
47.2530711571959,-2.33207139333848,13,39,0,FR23230
46.8022145735861,4.41750134226911,3,49,0,FR32007
46.1690555550192,15.6606388888889,20,31,0,HR0012A
46.528,125.112,3,49,0,龙凤区
46.5888,131.1572,14,38,0,苗圃
45.55879166613,18.6987694444444,1,49,0,HR0003A
45.5422,126.979,4,48,0,阿城会宁
45.8194,130.8625,16,36,0,新建　
45.3207944439076,14.4835111111111,11,40,0,HR0005A
43.9469,87.4754,9,43,0,新疆农科院农场
43.95305556,126.4738889,21,31,0,九站
43.6755544389705,4.62861441719004,14,38,0,FR02022
43.5704499994637,-5.95828,13,37,0,ES2054A
43.5377709994638,-5.646307,3,47,0,ES1358A
42.891794,20.868936,19,29,0,Mitrovice
42.887501,-73.249702,6,46,0,Bennington
42.612113,-71.307519,19,33,0,ChelmsfordNR
42.4638899994651,-2.42778,3,46,0,ES1602A
42.8122199994646,-1.64,12,37,0,ES1740A
42.8072199994646,-1.65139,4,46,0,ES1472A
42.0979101924658,1.848237224,4,47,0,ES1851A
41.6890494414666,2.495746675,1,50,0,ES1275A
41.9138899994661,22.41585,3,49,0,MK0034A
42.0352,119.2654,14,38,0,银河街
42.2191666594655,-8.74194444,1,48,0,ES1137A
41.1222,121.1178,10,42,0,天安街道
41.1386,121.1303,8,42,0,北湖公园
41.0228,123.1289,10,42,0,千山
41.3047,123.7308,14,38,0,彩屯
40.9606,-85.3803,18,33,0,Roanoke Elem. School
41.2741699994675,-3.1425,25,23,0,ES0009R
40.6575,109.8104,13,22,0,包百大楼
40.8062,111.7277,4,48,0,二十九中
40.7903,114.8792,19,33,0,烟厂
40.204433,-109.35321,7,45,0,Redwash
40.4399999994697,-3.63916666,16,33,0,ES0124A
40.4299999994697,-3.54583,5,44,0,ES1869A
40.0917,113.3444,14,38,0,大同大学
39.8673,116.366,20,32,0,万寿西宫
39.9716,116.473,4,48,0,农展馆
39.70845,-121.61731,2,10,0,Paradise - Airport
40.054848,-109.68737,6,46,0,Ouray
39.541801,-107.784103,21,31,0,Rifle Ozone
39.4861,-87.4014,18,32,0,Terre Haute-Lafayett
39.5469399994726,-4.35056,39,9,0,ES0001R
38.817,106.3394,9,43,0,沙湖旅游区
38.683304,-121.164457,1,28,0,Folsom
39.210883,-87.668416,5,42,0,West Union
38.9074999994749,-6.33806,1,48,0,ES1819A
38.6806499994758,-4.10832,6,44,0,ES1277A
38.9792799994747,-1.85213,11,39,0,ES1535A
37.9854,112.549,3,49,0,南寨
37.8964,112.5628,3,50,0,巨轮
38.0133,-87.5772,10,41,0,Evansville-Buena Vis
38.1131,-86.6036,7,44,0,Leopold
38.5876,-76.1408,8,44,0,Horn Point
37.68277778,112.7194444,5,47,0,榆次三中
37.393,117.9776,1,51,0,北中新校
37.7658,-122.3978,12,40,0,San Francisco
37.687526,-121.784217,1,51,0,Livermore - Rincon
37.3471899994818,-5.97963,4,45,0,ES1638A
37.1656799994827,-3.6001,11,37,0,ES1924A
36.7697199994847,-2.81097,9,40,0,ES1549A
36.1031,103.631,34,18,0,兰炼宾馆
36.206699,-95.976402,8,44,0,Tulsa
35.7197,-84.3417,2,38,0,LOUDONMS
36.1794299994879,-5.37697,10,40,0,ES0556A
35.4794,-97.7508,5,46,0,Yukon
34.8848,-76.6203,30,11,0,Beaufort
34.2572,109.06,5,47,0,纺织城
34.1978,108.985,21,31,0,曲江文化产业集团
34.6869,112.4831,2,50,0,河南林校
34.719,113.734,4,48,0,四十七中
34.7967,114.2886,10,42,0,世纪星幼儿园
34.8097,114.3442,5,48,0,龙亭公园
33.8399,115.8067,9,43,0,污水处理厂
33.6067,118.989,6,46,0,市监测站
33.5039,119.135,3,49,0,楚州区监测站
33.629991,-117.675875,2,50,0,Mission Viejo
32.79695,34.97059,4,42,0,תחנה:יזרעאליה
32.789,35.03992,8,54,0,תחנה:חיפה
33.1138,107.0089,6,46,0,鑫源开发区
33.0122,112.5224,2,50,0,瓦房庄
32.935,117.3086,16,36,0,二水厂
33.1944,-97.1933,2,50,0,Denton Airport South
32.0144,118.777,3,49,0,中华门
32.0775,118.795,3,49,0,玄武湖
31.7956,117.302,2,50,0,包河区
31.7386,117.278,1,51,0,滨湖新区
31.7039,119.935,2,50,0,武进监测站
31.354,119.818,13,39,0,宜兴市环保局
31.3264,120.596,3,49,0,轧钢厂
30.6578,104.054,6,46,0,君平街
30.8217,106.1031,2,50,0,南充炼油厂
30.7946,120.744,2,50,0,清河小学
30.378167,-81.84079,4,48,0,Cisco Drive
30.3503,-95.425,12,40,0,Conroe Relocated C78
30.0394,-94.0747,3,49,0,Beaumont C2/C112
29.4822,106.364,5,44,0,白市驿
29.315,110.4417,17,35,0,袁家界
29.334,120.04,9,43,0,北苑
29.0436,-95.4736,6,46,0,Lake Jackson C1016
29.2631,-94.8564,34,18,0,Galveston Airport C1
28.2675,109.6958,12,40,0,吉首市计生局
28.2189,112.8872,3,49,0,高开区环保局
28.6453959995473,-17.771554,14,35,0,ES1956A
28.3372199995505,-16.39972,11,38,0,ES1920A
27.6486,106.8906,7,45,0,忠庄
27.8492,-80.4554,21,30,0,Indian River Lagoon
26.8906,100.2203,4,48,0,市中心
27.11,114.9739,6,46,0,市森林工业局
26.204697,50.570833,26,22,0,Manama
26.567,101.7227,13,39,0,四十中小
26.5506,104.9544,4,48,0,双水
26.2403,107.5228,15,37,0,小围寨
25.9118,114.9064,7,45,0,通天岩
25.8417,98.8546,21,31,0,泸水一中
25.5811,100.2171,5,47,0,大理古城
25.0836,102.728,2,50,0,龙泉镇
24.6928,108.054,12,40,0,市环保站
25.07857,121.365703,4,48,0,Linkou
23.7106,113.0208,9,43,0,凤城街办
23.415,111.2353,16,36,0,龙圩
23.2539,116.6092,3,49,0,潮阳子站
22.7633,100.98,8,44,0,市环保局
22.4137,107.3476,10,42,0,市环保局江州分局
22.330277777777777,114.15916666666668,24,28,0,Sham Shui Po
21.4086,109.1436,12,40,0,海滩公园
21.5233,109.1778,5,47,0,北海工业园
21.6533,110.9294,7,45,0,茂石化七小
14.683085094818,100.87513981078,5,47,0,Na Phra Lan, Chaloem Phra Kiat
13.76963,100.614562,21,31,0,Pubpla, Wang Thonglang
13.652156925663,100.53183964688,2,31,0,Residence for Dept. of Primary Industries and Mines
-21.009739859322,55.2727106111753,2,49,0,FR38020
56.7522,-111.4761,27,25,0,Patricia McInnes
55.0722219994964,24.283894,6,46,0,LT00042
52.95702,11.16705,3,49,0,DENI060
52.99875,11.73846,10,42,0,DEBB063
52.93189,12.809481,1,50,0,DEBB048
53.106944,-7.196389,15,34,0,IE0111A
51.497195,10.791404,2,50,0,DETH018
51.651166,12.302866,3,49,0,DEST015
51.285356,14.749731,17,35,0,DESN079
49.362049,7.263234,1,51,0,DESL002
49.1489715576172,16.696216583252,4,48,0,CZ0BBNY
49.28806,-122.79139,3,49,0,Coquitlam
49.24528,-122.70889,3,49,0,Pitt Meadows
49.1074904810244,6.1227732461132,2,50,0,FR01018
47.7230906312769,7.34160742360657,3,49,0,FR16065
47.5949405939562,7.56817152141435,1,51,0,FR16060
47.2988,123.945,3,49,0,市环境监测站
47.3489,130.3172,6,46,0,东山纸板厂
45.7649472216856,16.0064694444444,3,48,0,HR0009A
45.6980277772411,18.8346388888889,15,36,0,HR0011A
45.7733,126.689,1,51,0,太平宏伟公园
44.561,129.61,3,49,0,环保大楼　
44.219867,-76.521128,13,39,0,Kingston
44.528389,-72.868973,15,37,0,Underhill
43.5915522696866,3.88689345339823,2,50,0,FR08016
43.8167,125.25,2,50,0,高新区管委会
43.46611,-88.621109,13,39,0,Horicon Wildlife Are
43.1787999994641,-6.5527,3,47,0,ES1432A
42.736649,11.876578,4,48,0,Acquapendente
42.9061,129.5042,13,39,0,延边医院
43.0413888794643,-5.08972222,10,40,0,ES1989A
42.8027777694646,-5.62361111,7,43,0,ES1297A
41.639666,13.348913,5,46,0,Frosinone Mazzini
42.215859,20.741556,8,40,0,Prizren
41.8828,123.9169,5,47,0,顺城区
42.0494,-88.2731,2,42,0,ELGIN
41.3217684044674,2.082140639,14,32,0,ES1983A
41.3031125334674,1.991523957,16,31,0,ES1910A
41.3134752074674,2.013824628,14,33,0,ES1903A
41.6175,-87.1992,1,49,0,Ogden Dunes
41.221418,-85.016821,1,50,0,Leo HS
40.8144,111.608,12,40,0,糖厂
40.1269,113.2661,1,51,0,安家小村
40.8367,114.8985,9,43,0,人民公园
40.745,-89.5861,2,38,0,PEORIA_H
40.67025,-74.126083,7,45,0,Bayonne
40.589722,-8.670556,2,50,0,PT02018
39.9279,116.225,11,41,0,古城
39.800339,-75.21212,10,29,0,Clarksboro
38.9932299994746,1.30894,16,32,0,ES1825A
39.1587,117.764,3,49,0,汉北路
39.2031,-122.0169,1,15,0,Colusa - Sunrise Blv
39.0217,-84.4744,4,35,0,NKU
39.055302,-76.878304,1,51,0,HU-Beltsville
38.921848,-77.013176,6,46,0,McMillan NCORE
37.9325,102.6486,10,37,0,东关招商场(190211启用)
38.49494,106.1024,11,41,0,文昌北街
37.9723,106.196,3,49,0,新区二泵站
38.4186,112.7356,2,9,0,机引
37.8933,-84.5892,1,39,0,NICHVILL
38.615,-7.3975,9,43,0,PT04006
38.4291699994769,-6.395,11,36,0,ES1820A
37.8195,112.57,6,46,0,坞城
37.7379,115.6426,6,46,0,市监测站
37.809,120.773,9,27,0,蓬莱博物馆
37.7808,-87.0756,6,33,0,OWENPRI
37.6888888794802,-1.70111111,2,48,0,ES1569A
36.6428,101.7775,4,48,0,城北区政府
36.6868,117.0684,8,44,0,省种子仓库
36.6525,119.1638,1,51,0,坊子邮政
36.907,121.544,10,42,0,乳山市气象局
36.7969,-108.4725,1,51,0,Substation
37.0519399994833,-6.55528,27,23,0,ES0017R
37.0160999994834,-6.57042,14,35,0,ES1878A
36.7431199994849,-3.5173,10,40,0,ES1370A
36.2126,113.0886,7,45,0,审计局
36.1855,113.0844444,11,41,0,长治八中
35.785665,-115.357087,2,50,0,Jean
35.6031,-83.7836,1,38,0,Cades Cove - GSMNP
34.493,109.4636,3,49,0,体育馆
34.6692,112.3628,5,47,0,中信二小
34.6258,112.4275,8,44,0,市委新办公区
34.7745,117.5852,6,46,0,峄城区政府
34.4742,-85.4081,3,37,0,Summerville
33.5981,119.036,18,34,0,钵池山
33.575,119.007,7,45,0,北京南路
34.0667,-117.7506,16,36,0,Pomona
33.925062,-117.952586,1,51,0,La Habra
34.093899,-80.962196,13,39,0,Parklane
32.78981,35.00926,3,51,0,תחנה:אליכין
32.6939,109.0281,11,41,0,安康市监测站
32.9917,112.5192,12,41,0,环保局　
32.645,117.0083,1,51,0,师范学院
32.6336,-115.5042,10,41,0,SPABC14 COBACH
32.4246,105.8153,10,42,0,南坝
32.4611,119.9219,11,41,0,莲花
32.1772,-96.8711,8,44,0,Italy C1044
31.7618,116.478,15,37,0,皖西学院
31.155,120.636,5,47,0,吴江市环保局
31.172,120.658,6,46,0,吴江开发区
31.66752,-106.28774,4,48,0,Socorro Hueco C49
30.5706,104.079,12,40,0,三瓦窑
30.6463,111.3549,7,45,0,伍家岗
30.89556,120.0875,2,50,0,仁皇山新区
30.525,-87.204399,7,45,0,Ellyson Industrial P
29.709,106.452,5,47,0,蔡家
29.8686,114.3372,11,41,0,长江产业园
29.940001,-89.919998,7,42,0,Meraux
30.1103,-84.9903,17,33,0,Sumatra
29.5844,103.7627,3,49,0,牛耳桥
29.5634,103.757,23,29,0,市监测站
29.565,106.5469,11,42,0,上清寺
29.2647,117.1558,12,40,0,台达陶瓷
28.3586,112.9958,5,47,0,沙坪
28.6425,115.892,6,46,0,象湖
28.8358,-97.0056,26,26,0,Victoria C87
28.8050999995458,-17.78255,9,38,0,ES2023A
27.2944,105.31,16,36,0,师专
27.0658,114.9817,9,43,0,红声器材厂
26.5917,104.83,17,35,0,黄土坡
25.067,102.681,5,47,0,金鼎山
24.565269,120.8202,2,50,0,Miaoli
23.4168,103.386,3,49,0,监测站
22.9169,112.0392,2,50,0,新市府
22.6411,110.1675,4,48,0,市监测站
19.3044,-99.0738,2,23,0,UAM Xochimilco
19.3573,-99.2628,2,20,0,Santa Fe
14.976785802969,102.10219652705,15,28,0,Nai Mueang, Mueang
13.66846068306,100.50581203933,11,21,0,Samae Dam, Bang Khun Thian
-27.4296,153.158,2,50,0,Deception Bay
-32.9325,151.7583333,5,47,0,Newcastle
-33.8658333,151.1625,1,51,0,Rozelle
-34.4186111,150.8863889,17,35,0,Wollongong
54.8951279994952,23.986222,2,50,0,LT00041
52.95473,-1.146447,3,49,0,Nottingham Centre
52.3893,4.94382,2,50,0,Amsterdam-Nieuwendammerdijk
52.39,4.88781,26,26,0,Amsterdam-Van Diemenstraat
52.638798,-7.268114,16,34,0,IE0147A
50.3227545101591,3.39592821801555,10,42,0,FR06011
50.3502769470215,16.3225002288818,14,38,0,CZ0HPLO
49.1953885052283,6.95744289235285,29,22,0,FR22014
49.4516563415527,17.454158782959,3,48,0,CZ0MPRR
49.028036846981,2.75028207386033,13,39,0,FR04142
48.345778,9.207639,9,43,0,DEBW087
45.6886,85.1186,12,40,0,白碱滩区
45.651722,-73.573896,1,52,0,Rivi��re-des-Prairies
44.9653,-93.2551,21,17,0,Minneapolis-Near Roa
45.2536,-66.0803,14,38,0,SAINT JOHN WEST
44.5782,129.6115,10,42,0,文化广场　
43.2877277836684,3.50483097990936,4,48,0,FR08022
43.3351824944185,5.72736180750231,24,28,0,FR03027
43.8711,87.5525,1,51,0,铁路局
43.6156,122.3039,13,39,0,胶建铝业
43.2561199994641,-5.77594,14,33,0,ES1651A
42.8698,-109.8708,7,45,0,Pinedale Gaseous
42.751518,-96.707208,8,38,0,UC1
42.4669,-87.8103,2,41,0,ZION
41.9492475343375,8.7575858733528,11,41,0,FR41007
41.7192,86.2022,21,31,0,棉纺厂
42.2211,-88.2411,5,39,0,CARY
42.3144,-83.0433,10,42,0,Windsor Downtown
41.705226,-76.512726,2,50,0,Towanda
42.0616666594658,-7.40854166,2,47,0,ES2014A
42.3083299994654,-1.80833,7,42,0,ES1662A
41.206402,-111.975197,2,21,0,Ogden #2
41.5517,-86.3706,2,48,0,Potato Creek State P
40.6821,109.8538,16,36,0,青山宾馆
40.515251,-74.806755,2,50,0,Flemington
39.9425,116.361,6,46,0,官园
39.5178,116.6838,3,49,0,药材公司
39.6407,118.1853,9,43,0,物资局
39.625,121.989,14,21,0,抱龙山庄
39.751099,-104.987198,7,45,0,Denver - CAMP - 2105
38.9108,115.4713,2,50,0,接待中心
38.8707,115.5214,1,51,0,监测站
38.8606,-90.1058,3,41,0,WOOD_WTP
38.9181,-84.8528,17,21,0,EASTBND
39.333099,-76.550003,4,39,0,Furley
37.9844,106.2025,5,47,0,高级中学
37.7019,112.7549,4,48,0,锦纶小区
37.3617,118.0018,5,47,0,第二水厂
37.34997,-108.58737,1,45,0,Cortez Ozone
37.1556,-88.3931,8,32,0,SMITHLD
37.4828,-82.5353,11,27,0,PIKE2001
36.6867,101.524,3,49,0,第五水厂
37.0581,-88.5725,27,12,0,JPRECC
35.8958358794896,14.48998642,8,38,0,MT00005
36.10139,111.505,14,38,0,唐尧大酒店(启用161122)
36.2975,-86.6525,1,37,0,HVILLE
36.1106,-80.2267,1,36,0,HATTIEAVEN
36.0261,-80.3419,3,34,0,Clemmons Middle
35.32,-97.4883,4,48,0,Moore
35.3792,-82.7925,10,22,0,FRYPAN
35.235,-77.5733,3,23,0,LENOIRCOLL
34.7997,111.1489,3,49,0,风景区
34.402,115.6578,2,6,0,第三人民医院　
34.2778,117.2933,6,46,0,农科院
34.3778,-84.0561,1,38,0,Dawsonville
33.721,113.322,1,51,0,新华旅馆
33.9592,118.2442,1,51,0,宿迁中学
33.654725,-111.107406,20,32,0,Tonto National Monum
33.1842,106.9893,8,42,0,汉川机床厂子校
32.6975,109.0072,8,44,0,汉滨区检察院
32.131722,34.831939,1,0,0,תחנה:המשתלה
31.62,74.876512,10,22,0,Golden Temple, Amritsar - PPCB
31.6531,-97.0706,2,50,0,Waco C1037
30.7057778,76.8531805555555,12,17,0,Sector-6, Panchkula - HSPCB 
30.72358333,103.97275,24,28,0,金泉两河
30.9414,117.7806,19,33,0,市新民污水厂
30.1480566,77.2893471,10,21,0,Gobind Pura, Yamuna Nagar - HSPCB
30.0475,101.9603,29,23,0,水桥子
30.2028,115.0767,6,46,0,陈家湾
29.503664,75.467934,6,25,0,Huda Sector, Fatehabad - HSPCB
28.974801,77.213357,3,29,0,New Collectorate, Baghpat - UPPCB
28.806223,76.141105,20,11,0,H.B. Colony, Bhiwani - HSPCB
28.639645,77.146263,2,27,0,Pusa, Delhi - IMD
28.5447608,77.3231257,9,20,0,Sector - 125, Noida - UPPCB
28.7256504,77.2011573,6,21,0,Burari Crossing, Delhi - IMD
28.570173,76.933762,1,28,0,Najafgarh, Delhi - DPCC
28.71583,104.5761,8,44,0,黄金嘴
28.6844,115.893,8,44,0,省外办
27.6506,106.9231,2,45,0,舟水桥(190215启用)
27.7297,109.1916,1,51,0,铜仁卫校
26.902909,75.836853,6,23,0,Adarsh Nagar, Jaipur - RSPCB
27.0983,115.0075,2,50,0,青原区法院
26.4703136,80.3229863,6,23,0,Nehru Nagar, Kanpur - UPPCB
24.7955,84.9994,20,9,0,Collectorate, Gaya - BSPCB
24.9617,118.6108,7,45,0,清源山
23.8982,100.0782,8,44,0,市气象局
24.3694,102.5778,1,51,0,东风水库
24.339,102.5381,7,45,0,文体中心
23.7369,109.2317,7,45,0,来冶招待所
23.711853,120.544994,8,44,0,Douliu
23.221714,72.654328,7,23,0,Sector-10, Gandhinagar - GPCB
23.182719,75.768218,3,29,0,Mahakaleshwar Temple, Ujjain - MPPCB
23.4794,111.26,6,46,0,龙新
21.613267,73.010555,31,0,0,GIDC, Ankleshwar - GPCB
17.6599188,75.9063906,7,9,0,Solapur, Solapur - MPCB
17.460103,78.334361,1,31,0,Central University, Hyderabad - TSPCB
13.732878086814,100.48601837802,16,26,0,Hiran Ruchi, Thon Buri
12.9352049,77.6814488,6,14,0,BWSSB Kadabesanahalli, Bengaluru - CPCB
12.97378,101.212844,13,39,0,Pluak Daeng, Pluak Daeng
53.2465,6.60894,3,49,0,Groningen-Nijensteinheerd
53.27481,-6.222367,12,38,0,IE0140A
52.3883,6.40293,8,44,0,Hellendoorn-Luttenbergerweg
52.0918,6.60537,18,34,0,Eibergen-Lintveldseweg
51.1192,6.0424,17,35,0,Posterholt-Vlodropperweg
47.9464,-91.4953,37,0,0,Ely
46.6219,124.8648,9,43,0,让胡路区
46.6527,126.9636,14,38,0,党政办公中心
46.8511,-95.8467,37,0,0,Detroit Lakes
46.3944,-94.1433,5,32,0,Brainerd
45.7148444091466,16.0682553185743,2,50,0,HR0026A
45.7222,126.599,4,48,0,南岗学府路
44.2325,-79.7814,2,50,0,Egbert
44.1503,-77.3956,4,48,0,Belleville
43.5094524142014,4.98277521795416,1,51,0,FR02012
43.7919356449994,7.04833443280007,7,45,0,FR24040
43.8303,87.5801,4,48,0,监测站
43.8256,126.55,3,49,0,江南公园
43.4805555494638,-8.24138888,3,46,0,ES1867A
42.5047,-87.8111,5,32,0,CHIWAUKEE
42.3191699994654,3.31583,34,16,0,ES0010R
41.7511,86.1461,12,40,0,孔雀公园
41.7089,123.439,2,50,0,新秀街
41.8336,123.542,3,49,0,东陵路
41.7972,123.3997,14,38,0,太原街
42.0747199994658,-1.62694,2,47,0,ES1661A
40.9843,117.9525,1,51,0,中国银行
41.2864,123.7669,4,48,0,东明
41.6067,-87.3047,1,47,0,Gary-IITRI
40.924606,-75.067825,30,22,0,Columbia
40.7608,107.4211,7,45,0,附中
40.3097,-78.9158,28,24,0,Johnstown
40.34694443947,-3.705,4,45,0,ES0125A
39.5989,109.8119,11,41,0,华泰汽车城
39.9934,116.315,10,42,0,海淀区万柳
39.621462,-119.718738,2,50,0,Spanish Springs
39.9175,-91.3358,8,32,0,QUINCY
39.7589,-86.3972,1,46,0,Avon
40.0777799994708,-6.14722,5,44,0,ES1997A
39.3673,112.4279,3,49,0,市二中
38.8957,115.5223,1,51,0,华电二区
38.656449,-90.198548,9,43,0,BLAIR STREET
39.0667,-88.548302,4,36,0,EFFINGHM
39.263914,-86.292261,18,33,0,Helmsburg
38.8795,-80.8477,18,33,0,Cedar Creek
38.7833,-75.1667,10,42,0,LEWES
39.278333,-9.245556,1,49,0,PT03102
38.5339,102.1725,8,44,0,新川苑
38.2911,109.7456,16,36,0,世纪广场
38.00583333,114.4586111,10,42,0,西南高教
38.03777778,114.5480556,1,51,0,22中南校区
38.4583,-109.8211,1,51,0,Canyonlands NP
37.9856,-85.7131,5,34,0,SHEPVILL
37.954167,-8.838056,1,45,0,PT04001
37.9943499994788,-5.66687,4,45,0,ES1654A
37.51,111.1283333,20,32,0,马茂庄小学
37.4769,-97.3664,4,48,0,PECK
37.3424599994818,-5.83372,6,43,0,ES1640A
36.5067,102.0306,11,41,0,平安高铁新区
37.0172,105.18,2,50,0,官桥站
36.4796,115.9835,1,7,0,党校
36.785378,-119.773206,2,14,0,Fresno - Garland
36.7422,-107.9769,4,48,0,Bloomfield
36.4605899994864,-6.20307,11,38,0,ES1593A
36.11,114.286,2,50,0,铁佛寺
35.872,120.039,10,42,0,2号子站
36.0214,-118.137,2,7,0,Kennedy Meadows
35.9514,-87.1375,27,10,0,FVIEW
35.765413,-82.264944,14,23,0,Mt Mitchell
36.3069,-79.0919,5,22,0,BUSHYFRK
36.159369999488,-5.34836,9,39,0,ES1072A
35.2175,-90.0194,17,28,0,FRAYSER
35.314158,-80.713469,2,43,0,University Meadows
34.3731,109.2186,4,48,0,临潼区
34.785,-84.6269,31,8,0,Fort Mountain
33.666,116.951,3,49,0,远航博物馆(181204启用)
33.9447,118.3225,1,51,0,宿豫区政府(181206启用)
33.483799,-112.142601,8,44,0,West Phoenix
32.81148,35.1123,3,56,0,תחנה:קציר החדשה
32.1083,118.803,1,51,0,迈皋桥
31.955,119.18,9,43,0,房家坝
31.5072,104.7283,3,49,0,三水厂
30.65638889,104.0238889,13,39,0,大石西路
30.8064,106.056,7,45,0,西山风景区
30.2278,-93.5797,10,39,0,Vinton
28.9026,105.4436,2,50,0,小市上码头
28.8833,105.4322,3,49,0,市环监站
29.355,113.2117,2,50,0,金凤水库
28.76611,104.6225,6,46,0,市委
28.7867,104.6061,4,48,0,宜宾四中
28.2558,109.6414,2,50,0,跃进水库
28.4569,118.0058,4,48,0,百草园
27.2582,111.4908,5,47,0,市化工厂
27.3503,-82.4797,4,48,0,Paw Park
26.5689,106.6971,4,48,0,市环保站
25.8226,113.0116,7,45,0,市职中
25.8664,114.9367,9,43,0,地委
24.151958,120.641092,2,50,0,Zhongming
23.0786,112.4722,5,47,0,七星岩子站
22.627392,120.358083,1,51,0,Fengshan
13.780444,100.537798,4,48,0,Phaya Thai, Khet Phaya Thai
6.2301841,-75.6099625,10,42,0,MED-UDEM - Universidad de Medellin
-27.7528,152.651,5,47,0,Mutdapilly
53.060045,8.916966,3,49,0,DEHB002
51.4344,4.35984,15,37,0,Huijbergen-Vennekenstraat
50.4897047413789,2.66642434208777,2,50,0,FR28033
49.2763912615378,2.48217089416201,8,44,0,FR18019
49.1874042196733,6.91086524487126,18,30,0,FR22054
49.18639,-123.15222,1,51,0,Vancouver Airport
48.9555351245183,2.575281273361,6,46,0,FR04319
47.3386,123.9305,2,50,0,中心广场
46.2056,-93.7589,21,16,0,Mille Lacs
46.713694,-92.511722,5,30,0,Fond du Lac
46.2889,-85.9503,36,0,0,SENEY
45.6033,84.8861,10,42,0,长征新村
45.8309,130.9467,29,23,0,葫头沟
45.0878,124.8292,3,49,0,江南
45.2924,130.962,7,45,0,环保局　
44.6633,-105.287498,5,47,0,Thunder Basin
44.736465,-68.671143,1,31,0,Holden
44.53330277777778,18.534891666666667,3,31,0,Lukavac
43.941,81.3364,11,41,0,第二水厂
43.9167,125.323,14,38,0,食品厂
44.531883,-67.595879,1,31,0,Jonesport
43.1847,124.3897,7,45,0,境园
43.8364,-82.6431,6,30,0,HARBOR BEACH
43.4061111094639,-2.70388888,8,43,0,ES1491A
42.7186,-109.7531,3,49,0,Boulder
41.8594,123.9,3,24,0,新抚区
41.750599,-109.789703,1,51,0,Moxa Arch
42.2806,-91.5269,7,29,0,COGGON
41.984402,-87.791901,4,32,0,CHI_TAFT
42.1978,-86.3097,3,33,0,COLOMA
41.669001,-83.28717,10,22,0,Cooley Canal
42.1428,-80.0372,8,44,0,Erie
41.3853432834672,2.15382196,5,46,0,ES1438A
41.2894,123.1417,14,38,0,铁西工业园
41.3472,123.8142,8,44,0,威宁
41.55523,-81.575256,4,32,0,6th District
41.515051,-81.249906,3,33,0,Notre Dame
40.6894,-122.4024,3,49,0,Shasta Lake City
40.3414,-111.7136,3,49,0,Lindon
40.693298,-92.006104,4,32,0,Lake Sugema
40.771,-84.0539,3,30,0,Lima
40.4447,-80.42,10,42,0,Florence
39.6719,106.8219,3,49,0,聚英学校
39.954475,-82.758875,2,34,0,Ohio DES
39.0343,117.707,4,48,0,第四大街
38.856111111,121.51805556,2,50,0,七贤岭
39.144804,-119.766409,9,43,0,CC_Armory
38.8386,-94.7464,4,48,0,Heritage Park
38.859402,-77.058899,2,34,0,AURORA HILLS
38.1761,-89.7883,12,28,0,HOUSTON
38.243663,-82.255676,1,12,0,HUNTINGTON
38.4772,-78.816704,1,35,0,Rockingham
37.5211,111.1406,10,42,0,环保局
37.8694,113.5689,6,46,0,平坦
37.8531,113.6292,5,47,0,白羊墅
37.256069,-93.299692,17,20,0,Hillcrest HS
37.871111,-8.723889,19,33,0,PT04003
36.956699,-97.034401,5,34,0,NEWKIRK
36.719639999485,-4.4475,7,42,0,ES1750A
36.1058,-82.0454,14,37,0,Cranberry
36.3089,-79.8586,6,23,0,BETHANY
35.8111,-76.9067,2,22,0,JAMESVIL
35.0506,-118.1464,6,10,0,Mojave - 923 Poole S
35.408138,-94.524414,7,34,0,ROLAND
35.2578,-83.7956,10,22,0,JOANBOLD
34.1546,108.906,6,46,0,长安区
34.7781,114.3389,2,50,0,肿瘤医院
34.669589,-118.130689,8,44,0,Lancaster-Division
34.243132,-117.272275,14,38,0,Crestline - Lake Gre
33.38256667,104.9338889,9,43,0,滨江中学
33.6347,114.6758,3,49,0,周口师范
33.8997,116.8067,2,50,0,烈山区政府
33.8217,-112.0174,6,46,0,Cave Creek
33.750833,-90.734167,7,29,0,CLEVELAND
33.9,-86.05,4,32,0,Southside
33.3311,-87.0036,2,34,0,MCADORY
33.3169,-86.825,2,34,0,HELENA
31.8934,102.2402,10,42,0,马师校
32.1142,112.1825,2,50,0,高新管委会
32.215,119.491,8,44,0,职教中心
32.4419,-97.8033,3,49,0,Granbury C73
32.346905,-90.225928,15,21,0,Hinds CC
32.3644,-88.7314,23,12,0,MERIDIAN
32.437028,-84.999653,21,16,0,PC South Girard Scho
32.0683,-81.0489,4,33,0,Savannah East Presid
31.7897,119.8914,5,48,0,钟楼
31.2864,120.628,2,50,0,南门
30.377501,-88.533897,3,33,0,PASCAGOULA
29.8342,-95.4892,2,50,0,Lang C408
29.0531,111.6625,3,49,0,武陵区长庚
28.8194,104.5969,3,49,0,石马中学
27.7758,115.0586,13,40,0,北岗(对照点)
27.807,114.9149,11,33,0,新钢沁园村(20190301启用)
26.6009,106.7105,3,49,0,红边门
25.7054,100.1542,10,42,0,大理市环境监测站
25.1081,99.1678,8,44,0,市环境监测站
24.3158,109.4839,10,42,0,古亭山
20.67495,-101.35595,13,33,0,Estación Bomberos
-26.6917,153.104,1,51,0,Mountain Creek
-32.195,150.6736111,12,40,0,Wyong
55.7249999995007,24.36557,11,41,0,LT00012
54.161555,12.174105,6,45,0,DEMV007
53.80378,-1.546472,3,49,0,Leeds Centre
53.56414,9.967882,11,41,0,DEHH008
52.643525,13.489531,8,44,0,DEBE051
51.911111,-8.475,20,25,0,IE001BP
50.694322523083,1.57657027308828,5,47,0,FR10032
51.207944,10.450997,2,50,0,DETH095
50.10175,8.542517,5,47,0,DEHE005
50.017078,8.216498,4,48,0,DERP007
49.4005402179295,1.09882823868784,15,37,0,FR25043
49.2821930185986,4.05111447048812,1,51,0,FR14010
49.4112319946289,14.6763887405395,7,45,0,CZ0CTAB
48.397079,10.008293,10,42,0,DEBY052
48.396836,9.979031,1,51,0,DEBW019
48.904228,11.948795,1,51,0,DEBY030
48.52059,-122.61428,18,30,0,Anacortes-202 Ave (S
48.3641401278483,2.23693980475023,2,50,0,FR04066
48.2949796949513,4.05027903727389,2,50,0,FR14033
47.7222,128.8736,21,31,0,中心医院
47.6200144851179,6.15760991283135,8,44,0,FR82060
46.0756,121.9462,15,37,0,科右前旗环保局
45.9819,126.6106,19,33,0,呼兰师专
45.542767,-73.572039,1,51,0,Molson
45.1587617596045,1.53722406364385,1,51,0,FR35004
44.9335095989709,4.89348267871268,1,51,0,FR36002
44.3069,-86.2428,5,31,0,MANISTEE
43.457222,4.426667,5,42,0,FR02024
43.367777769464,-8.41888888,6,43,0,ES1138A
43.294116999464,-5.679632,4,46,0,ES1353A
43.275634999464,-5.59599,7,43,0,ES1433A
42.659656,21.157309,9,40,0,Prishtine, Rilindje
43.123299,-94.693298,22,14,0,Emmetsburg, ILCC
42.2725,118.9572,5,47,0,哈达街
41.8956,-86.0017,10,26,0,CASSOPOLIS
42.065119,-71.012686,1,51,0,Brockton
41.1219,121.2008,3,49,0,百股街道
41.2692,123.7989,7,45,0,新立屯
39.79777778,98.26722222,13,39,0,酒钢宾馆
39.8745,116.434,10,42,0,天坛
39.8589,-86.0214,4,47,0,Indpls-Ft. Harrison
39.83562,-84.72049,2,50,0,Preble County
40.08455,-84.11412,3,32,0,Miami East
40.026037,-82.433,3,32,0,Heath
39.8491699994716,-5.93972,10,39,0,ES1616A
39.07803,-92.316322,27,10,0,FGRLAKES
38.4841,106.2739,12,40,0,上海东路
38.0398,114.6046,1,51,0,高新区
37.7394,112.5583,4,48,0,小店
37.7111,112.7306,8,44,0,南都小区
37.18,119.959,10,42,0,莱州外经委
37.4822,121.4478,2,50,0,莱山环保局
37.4294,122.1206,2,50,0,华夏技校
37.3667,-118.4167,14,21,0,Bishop Paiute Tribe-
36.5458,104.1731,7,45,0,豫源饭店
36.6028,109.4761,4,48,0,延大医附院
36.1058,103.7583,26,26,0,教育港（20181115启用）
36.048705,-115.052942,1,51,0,GreenValley
36.228298,-95.25,2,39,0,PRYOR
35.31,113.836,14,38,0,环保西院
35.4039,116.5546,8,44,0,电化厂
34.4286,115.6697,8,45,0,环境监测站
34.2633,-88.7597,25,11,0,TUPELOAP
34.805,-83.237503,9,36,0,Long Creek
33.567,114.056,3,49,0,三五一五工厂
33.708566,-116.215394,14,38,0,Indio - Jackson Stre
33.8017,-86.9425,18,18,0,CORNER
33.4333,-82.0219,2,36,0,Augusta
32.88922222,115.7838889,14,38,0,阜阳职业技术学院
32.64600333,117.0411667,4,47,0,益益乳业工业园
32.4429,105.8242,11,41,0,老城
32.0314,118.803,1,51,0,瑞金路
32.1883,119.68,7,45,0,新区办事处
32.5364,-93.7492,19,28,0,Shreveport Airport
31.1167,104.4053,2,50,0,市检察院
30.4576,106.6303,3,49,0,市委
30.5494,114.3006,5,47,0,武昌紫阳
30.5947,114.3008,5,47,0,汉口江滩
30.7697,-88.0875,12,24,0,CHICK.
30.3175,112.2551,4,48,0,市图书馆
30.21,120.211,2,50,0,滨江
29.7736,121.633,5,47,0,钱湖水厂
29.36028,104.7778,2,50,0,檀木林体育馆
29.57278,106.4042,9,44,0,龙井湾(启用161118)
29.489082,-81.276833,5,47,0,Flagler County
28.1337319995526,-15.432823,15,28,0,ES1573A
27.9639,116.3598,4,48,0,血防站
27.9647,116.385,2,50,0,医学分院
27.9747,120.76,5,47,0,龙湾
27.6331,-82.5458,1,0,0,Port Manatee
26.4364,106.6554,6,46,0,碧云窝
26.0392,119.303,4,48,0,师大
24.506,117.7116,2,51,0,蓝田镇
23.5538,113.589,2,49,0,帽峰山森林公园
23.2775,116.7258,4,48,0,濠江子站
22.5625,114.117,3,49,0,洪湖
21.9508,108.6553,1,51,0,市农科院
20.9479,-101.4258,5,34,0,Estación Hospital Ge
19.9969,110.338,19,33,0,海南师范大学
14.523536277394,100.92917127159,7,45,0,Pak Phriao, Mueang
14.4688323314949,-60.9274256616508,2,49,0,FR39014
53.313889,-6.249167,8,42,0,IE0127A
53.02821,-2.175133,3,49,0,Stoke-on-Trent Centre
51.662435,11.043386,4,48,0,DEST098
50.050343,8.244949,6,46,0,DEHE022
49.9489,-97.3964,30,0,0,Winnipeg_Ellens
49.4982939994699,0.758833,4,48,0,FR05087
49.8422,-99.9189,32,0,0,Brandon
48.8286101457138,2.36027849325984,13,39,0,FR04037
47.4308357194652,19.18417358,2,50,0,HU0022A
46.8025,130.2719,2,50,0,佳纺
46.619,131.1651,2,50,0,南小市
46.0481,-89.6536,2,30,0,TROUT LAKE
45.1642,124.8528,9,42,0,江北
43.925368232751,4.26581182339269,8,44,0,FR08617
44.4836,11.355,4,47,0,GIARDINI MARGHERITA
44.1386,-87.6161,6,26,0,MANITOWOC
44.3,-78.35,2,50,0,Peterborough
43.8343944035121,4.37422051188023,2,50,0,FR08614
43.1,-105.5,13,39,0,Converse County Long
42.8752777694645,-3.23138888,23,28,0,ES1489A
41.9767,-91.6878,13,23,0,PUBLIC HEALTH
41.875,-90.177498,2,34,0,Clinton, Rainbow Par
41.5144499994669,20.95862,3,48,0,MK0035A
40.9958,-80.3467,15,37,0,New Castle
40.136398,-111.660202,1,51,0,Spanish Fork
40.4191666594698,-3.70333333,8,41,0,ES1422A
39.9522,116.434,6,46,0,东四
39.465599,-77.958298,24,12,0,MARTINSBURG
39.563301,-76.203903,5,35,0,Aldino
39.1654,117.145,6,46,0,勤俭道
39.1082,117.237,4,48,0,大直沽八号路
39.21494,-84.69086,25,11,0,Colerain
38.4727799994767,-6.92361,15,33,0,ES0011R
36.61981,114.4965,8,44,0,丛台公园
36.39,120.47,8,44,0,开发区子站
36.270592,-115.238282,2,50,0,Joe Neal
36.0603,-86.2861,16,21,0,CEDARS
35.248889,115.42277,2,50,0,市气象局
35.6198,-106.0797,3,49,0,Santa Fe Airport
34.906082,-95.794128,8,44,0,McAlester
34.2324,108.94,6,46,0,小寨
34.7975,114.3733,2,10,0,妇幼保健院
34.445,115.6125,2,43,0,梁园区档案局(20190220启用)
34.6917,-86.591698,5,31,0,Huntsville Old Airpo
34.066429,-118.226755,1,51,0,Los Angeles - N. Mai
34.010283,-118.068484,1,51,0,Pico Rivera
33.4797,-111.9172,1,51,0,South Scottsdale
33.4124,-111.9347,15,37,0,Tempe
33.8005,-78.9941,8,33,0,Coastal Carolina
32.6494,110.78,11,41,0,滨河新村
33.0069,114.0131,4,48,0,市彩印厂　
33.2136,-115.5444,37,15,0,Niland - English Roa
33.29015,-112.159874,3,39,0,StJohns
32.6558,-97.0886,6,46,0,Arlington Municipal
32.508308,-111.30806,1,51,0,Pinal Air Park
31.4,119.46,1,51,0,溧阳市东门子站
31.317,119.438,4,48,0,燕山子站
30.63,104.1113889,7,45,0,沙河铺
30.4183,120.301,1,51,0,临平镇
30.4622,-91.1769,5,44,0,Capitol
30.3515,112.2068,1,51,0,市委党校
29.7181,-93.8969,5,47,0,SETRPC 40 Sabine Pas
29.9786,-94.0111,4,48,0,Nederland C1035
30.2294,-90.9656,1,48,0,Dutchtown
29.6039,115.9114,7,45,0,综合工业园
27.7914,114.3703,2,50,0,市气象局
27.9883,116.3553,3,49,0,市站
28.0005,116.3574,1,51,0,采茶剧团
27.9939,120.677,8,44,0,南浦
28.0990499995529,-17.12051,10,39,0,ES2044A
26.9258,112.6194,6,46,0,衡阳化工总厂
26.8956,112.6211,3,49,0,珠晖区环保局
26.6029,106.6856,1,51,0,马鞍山
26.4364,111.5992,8,44,0,永州市环保局
25.5035,103.7897,7,45,0,环境监测站
25.1174,117.0181,16,36,0,龙岩师专
24.740644,121.088903,1,51,0,Zhudong
22.7898,115.3706,5,47,0,市政府
20.0574,110.3232,4,48,0,海南大学
13.550478,100.264254,2,50,0,Maha Chai, Mueang
-21.3344236402583,55.4590212011017,11,40,0,FR38011
-27.9612,153.402,1,51,0,Southport
53.064262,14.285139,2,50,0,DEBB029
53.6072,-115.8769,5,47,0,Carrot Creek
52.17017,9.06255,5,47,0,DENI041
51.5405,5.85307,6,46,0,Vredepeel-Vredeweg
49.7222599994706,6.30533,8,44,0,LU0105A
49.6695823669434,12.6778841018677,13,39,0,CZ0PPRM
46.6384,126.9934,9,43,0,人和东街
45.2378,-86.9936,8,23,0,NEWPORT
43.8836216935053,0.845000272007028,12,40,0,FR12029
44.1756,87.5475,2,50,0,农水大厦
42.743099,-92.5131,8,28,0,Waverly, Airport
42.7783,-87.805,5,26,0,Racine-Payne and Dol
43.0178,-87.9333,1,30,0,MILWAUKEE 16TH ST
41.73084,13.00435,3,49,0,Colleferro-Oberdan
42.3022,123.8139,7,45,0,汇工街西
41.644067,-83.54625,4,22,0,Erie
42.2742,-71.8758,5,47,0,Worcester
41.4256209034672,2.222244805,3,48,0,ES1148A
40.970001,-95.044998,4,32,0,Viking Lake State Pa
41.4789,-75.5781,3,49,0,Peckville
40.3937,116.644,5,47,0,怀柔镇
40.366452,-80.615691,4,32,0,Steubenville
39.5327,-84.7286,6,46,0,Oxford
40.087807,-82.959585,3,33,0,Columbus - Maple Can
40.1122,-75.3092,3,49,0,Norristown
39.0845,117.1589,1,52,0,宾水西道
38.9583,-104.8167,9,43,0,Colorado Springs - U
37.4658,118.5019,3,49,0,西城阳光环保公司
37.161,122.41,10,42,0,山东成山轮胎公司
37.1355599994829,-3.61925,8,41,0,ES1973A
36.9533,-120.0341,1,51,0,Madera-City
36.922222,-94.83889,26,15,0,Miami
36.893101,-81.254997,2,34,0,RURAL RETREAT
36.0878,114.3922,4,48,0,信访局
36.1820999994879,-5.41141,14,34,0,ES0893A
35.0308,110.9678,6,46,0,地区技校
35.272,113.884,13,39,0,开发区
35.185,-106.5077,26,26,0,Tramway
35.612801,-97.472198,9,43,0,North OKC
34.2303,108.883,5,47,0,高新西区
34.2417,117.192,2,50,0,淮塔
33.9953,113.7906,2,50,0,开发区
33.581,114.014,3,49,0,水利局
33.9528,118.293,1,51,0,宿迁学院
33.6297,119.0186,6,46,0,淮阴区监测站
33.95507,-118.43046,6,46,0,LAX-Hastings
33.080003,-111.739298,3,39,0,Sacaton
32.922498,-97.282088,2,50,0,Keller C17
32.3039,118.3117,11,33,0,市政府原办公楼(20190308启用)
32.1319,119.43,4,48,0,丹徒区监测站
32.02,120.87,11,41,0,城中
32.3806,-111.1272,4,48,0,Coachline
32.36253,-88.27792,14,23,0,Ward
31.8108,119.9736,1,52,0,行政中心
31.7694,120.0469,2,51,0,经开区
31.17,120.635,1,50,0,教师进修学校
30.518,106.631,2,50,0,小平旧居
30.9414,117.8178,2,50,0,市第四中学
29.9834,103.0109,9,43,0,市政府
28.6047,112.3347,2,50,0,资阳区政务中心
27.94,-82.0003,4,48,0,Sikes Elementary Sch
26.6946,119.5001,11,42,0,金涵水库
26.5495,106.6867,1,51,0,太慈桥
25.0405,102.722,10,42,0,东风东路
23.7586,114.6944,5,47,0,东埔
23.0944,109.6014,7,45,0,贵城子站
23.045083,121.161933,19,33,0,Guanshan
22.8464,108.239,11,41,0,区农职院
22.805,108.383,5,47,0,大自然花园
22.6342,114.41,1,51,0,葵涌
21.6414,108.3506,13,39,0,大海花园
20.0356,110.33,12,40,0,龙华路环保局宿舍
18.41923,-66.15042,11,1,0,Bayamon 37 (NCore)
52.800773,10.756733,7,37,0,DEUB005
50.9406509399414,15.0698165893555,5,47,0,CZ0LFRT
48.3547092558406,2.64529596660528,1,51,0,FR04328
46.6572,131.1638,4,48,0,双合村
45.7258,126.646,9,43,0,动力和平路
44.8624694439076,13.8168583333333,3,46,0,HR0025A
43.8947,126.5786,3,49,0,江北
43.974449,-70.124893,7,26,0,DURHAM
43.4166709354131,5.04305217351858,4,48,0,FR02004
43.577603,-116.178156,14,14,0,White Pine
43.7781,-91.225,13,18,0,LACROSSE DOT
43.1811,-87.9006,2,29,0,BAYSIDE
43.309444439464,-2.01111111,2,49,0,ES1697A
42.5096939994651,1.539138,5,47,0,AD0942A
42.4388899994652,-2.25028,4,43,0,ES1779A
42.0622,-87.6736,11,28,0,EVANSTON
41.6394,-87.4936,4,47,0,Hammond-141st St
41.7169,-86.9075,11,40,0,Michigan City-4th St
41.7236111094665,-2.85694444,3,47,0,ES1991A
41.3874846394672,2.115149666,3,48,0,ES1992A
41.0604,-81.9239,10,26,0,Chippewa Lake
41.615,-71.7197,19,33,0,W Greenwich
40.7378,107.3715,11,41,0,市环保大楼
40.5625,-80.5042,8,44,0,Hookstown
40.747799,-80.316704,6,46,0,Beaver Falls
40.870438,-73.991997,6,34,0,Leonia
40.720989,-74.192894,5,47,0,Newark Firehouse
39.4365,75.9435,12,40,0,市环境监测站
39.7711,98.2908,13,39,0,气象局
40.0844,113.2711,26,26,0,教育学院
39.82,-80.2897,5,47,0,Holbrook
39.5586111094725,-1.28138888,4,46,0,ES1670A
39.325001,-81.5522,3,33,0,VIENNA
39.282799,-78.081398,6,30,0,BUTLER MANUF. CO NEA
37.5002,105.1971,1,51,0,环保局站
37.54377,-119.83957,28,3,0,Jerseydale (seasonal
37.2385,-94.42468,6,31,0,ALBA
37.3419,-77.260803,1,35,0,SHIRLEY PLANTATION
36.6164,114.5426,9,43,0,东污水处理厂
36.5776,114.5035,4,48,0,矿院
36.0417,111.4917,15,37,0,尧庙镇
34.3497,107.2058,4,48,0,文理学院
34.6231,112.3844,4,48,0,开发区管委会
34.7545,113.681,2,30,0,烟厂
34.429,115.6558,4,49,0,粮食局
34.851536,-82.744576,1,36,0,Wolf Creek
34.3561,-77.8617,5,19,0,CASTLE H
33.6128,114.6613,1,51,0,市环境监测站
33.5453,-86.5492,6,33,0,LEEDS
32.9881,-97.4764,2,50,0,Eagle Mountain Lake
31.96,120.913,2,50,0,南郊
32.535681,-86.255193,4,33,0,Wetumpka Tech Park
31.8653,106.7417,3,49,0,圣泉水务公司
30.6872,104.176,15,37,0,十里店
29.732,120.209,3,48,0,富林印务
29.5953,105.0331,6,46,0,市监测站
29.4251,113.1493,3,49,0,城陵矶
29.5831,-95.0156,4,48,0,Seabrook Friendship
29.1928,-82.1733,3,49,0,County Sheriff Impou
28.56,112.3439,1,51,0,市特殊教育学校
28.2264,117.0222,2,50,0,体育馆
28.5773,121.377,5,47,0,路桥田洋王
28.5272199995485,-14.00444,10,31,0,ES2002A
28.095,116.9622,7,45,0,龙虎山
27.0892,-82.3625,2,50,0,Jackson Road
23.6936,113.0425,2,50,0,环保大楼
23.63444,113.0472,5,47,0,技师学院
23.1036,109.5683,1,51,0,荷城子站
23.048333,120.218333,1,51,0,Annan
22.8322,100.9817,9,43,0,普洱第二中学
22.5931,113.0819,1,52,0,东湖
55.4633331294989,26.00416946,4,47,0,LT00051
55.31531,-3.206111,26,24,0,Eskdalemuir
52.146264,14.638166,15,37,0,DEBB032
51.8382,5.85694,8,44,0,Nijmegen-Ruyterstraat
48.6794217459452,2.16555967227409,4,48,0,FR04049
48.95218,10.59772,1,51,0,DEBY187
47.827202,-117.2742,14,13,0,Spokane-Greenbluff R
47.552502,-122.064697,2,25,0,Issaquah-Lake Sammam
47.416401,-117.5298,16,11,0,Cheney-Turnbull (SO)
46.821089115795,4.8350023537165,8,44,0,FR32002
46.3161001490074,4.8399969866962,2,50,0,FR32006
46.3991,124.8847,4,48,0,红岗区
46.204582,-119.243743,19,8,0,Kennewick-S Clodfelt
45.3378,-80.0378,4,48,0,Parry Sound
44.0114,87.2997,9,43,0,州监测站
44.3069,-88.3956,10,21,0,APPLETON AAL
43.4356,-89.6803,13,18,0,Devils Lake
43.2561,-79.8617,8,44,0,Hamilton Downtown
43.4044399994639,-3.84194,3,37,0,ES1576A
43.4677799994639,-3.79028,4,33,0,ES1529A
42.5467,-83.0061,2,31,0,WARREN
41.906358,12.447596,2,50,0,Cipro
42.1355599994657,21.71474,3,49,0,MK0036A
41.9339,123.6836,4,48,0,森林路
41.832199,-95.928101,4,32,0,Pisgah, Forestry Off
41.995602,-83.946701,3,33,0,TECUMSEH
40.9923,113.1306,12,40,0,集宁新区
41.3283,123.8436,5,47,0,大峪
41.598,-78.7674,4,48,0,Kane Exp. Forest
41.218056,-8.632222,1,51,0,PT01034
40.5546,110.0377,4,48,0,东河鸿龙湾
40.7136,120.9092,3,49,0,龙港区
39.4699,75.9771,6,34,0,吾办
39.9567,119.6023,3,49,0,监测站
39.645288,-119.840051,2,50,0,Lemmon Valley
39.85567,-83.99773,2,34,0,Mud Run
39.9428,-81.3373,12,40,0,Quaker City
40.0439,-76.1125,9,43,0,Lancaster DW
39.0153,106.3717,5,47,0,大武口黄河东街
39.20556,-121.82046,18,12,0,Sutter Buttes (seaso
37.360701,-118.330835,3,49,0,NCore - White Mounta
37.319444,-93.204444,5,31,0,Fellows Lake
36.5767,109.4824,24,28,0,市监测站
36.9580999994837,-2.1592,10,39,0,ES2066A
36.0783,111.5531,11,41,0,临钢医院
35.6967,-83.6089,22,30,0,Cove Mountain - GSMN
35.9889,-77.5867,1,23,0,LEGGETT
35.27,115.455,1,51,0,菏泽学院
34.3708,107.1586,4,48,0,庙沟村
34.7745,113.641,10,42,0,郑纺机
34.256901,-97.474197,6,35,0,Healdton
34.7727,-86.7561,4,1,0,Huntsville Capshaw
33.739,113.292,4,48,0,规划设计院
32.08386,34.78191,1,0,0,תחנה:הדר
31.1956,107.5069,5,47,0,达县机关宾馆
31.238,121.4,1,51,0,普陀
31.1694,-81.4964,9,28,0,Brunswick
30.7478,120.726,9,43,0,嘉兴学院
29.7228,106.626,2,50,0,两路
30.1594,115.0158,10,42,0,笔架山北路
28.2053,113.0792,3,49,0,马坡岭
28.6869,115.852,5,47,0,建工学校
28.6064,115.9083,4,48,0,机电学校
27.7842,114.3953,2,50,0,市石油公司
28.0036449995539,-15.411851,10,40,0,ES1919A
23.305633,120.31725,1,51,0,Xinying
22.8693,112.844,1,51,0,高明孔堂
22.313333333333333,114.22472222222223,8,44,0,Kwun Tong
21.4689,111.0286,1,51,0,市环保局茂港分局
53.59617,8.09059,2,50,0,DENI031
53.141303,13.031662,6,38,0,DEUB030
52.563835,14.015252,4,48,0,DEBB053
52.0677,5.12051,2,50,0,Utrecht-Erzeijstraat
51.570662,8.148061,3,49,0,DENW068
50.9577862878515,1.890082307246,1,51,0,FR10026
50.90814,-1.395778,3,49,0,Southampton Centre
48.853211,11.777818,3,49,0,DEBY049
46.8267,130.3961,3,49,0,发电厂
46.1625559994637,-1.153603,11,41,0,FR09003
43.9533,-86.2944,3,33,0,SCOTTVILLE
43.8748,125.3649,5,47,0,劳动公园
42.66218,-88.48703,1,27,0,Elkhorn
42.76138,-84.562867,2,50,0,LANSING FILLEY ST
42.930521,-72.272332,4,48,0,Keene
41.9756,-72.3867,1,30,0,Stafford
41.45465,-80.58841,1,35,0,Kinsman
41.187778,-8.672222,2,49,0,PT01052
40.26207,-122.09265,15,17,0,Tuscan Butte (Season
40.496408,-112.036305,14,38,0,Herriman #3
40.3,-85.245556,6,45,0,Albany
39.5453,116.7022,6,46,0,河北工业大学
39.773899,-75.496399,3,49,0,BELLFNT2
39.3514,112.44,4,48,0,平朔
39.3265,112.4078,5,47,0,市环保局
38.8632,115.493,1,51,0,游泳馆
38.911944444,121.63305556,2,50,0,青泥洼桥
38.771702,-77.108902,1,35,0,FRANCONIA
38.5061,102.1708,10,42,0,公司二招
38.2478,109.7336,10,42,0,环保监测大楼
38.01777778,114.5330556,3,49,0,世纪公园
38.3525,-121.9617,1,51,0,Vacaville
37.70264,-89.69864,2,35,0,Farrar
36.807914,-114.060877,4,25,0,Mesquite
36.903301,-76.438599,2,34,0,TIDEWATER COMM. COLL
36.0022,106.2792,6,46,0,监测站
35.101898,-115.776703,26,3,0,Mojave NPr
35.206111,-111.652778,9,43,0,Flagstaff Middle Sch
34.7964,114.3644,3,36,0,汴京公园(20190322启用)
34.198875,-96.67308,10,17,0,Tishomingo
34.7606,-87.6506,10,26,0,MSHOALS
33.814701,-80.781097,26,18,0,Congaree Bluff
33.0706,107.0154,1,51,0,市监测站
33.1325,-96.7861,8,44,0,Frisco C31
33.0894,-87.4597,3,34,0,TUSCALOO
31.882,120.55,3,49,0,城北小学
31.7308,113.3983,4,48,0,市立交桥水厂
31.3097,120.669,6,46,0,苏州工业园区
30.4908,114.3877,8,44,0,民族大道182号
29.6747,91.1221,3,49,0,市环保局
30.2989,109.5039,15,37,0,湖北民院
29.7339,-95.2575,2,50,0,Clinton C403
28.6677119995471,-17.775553,13,24,0,ES1979A
28.4553749995493,-16.27675,9,40,0,ES2003A
28.5002549995488,-13.852395,12,25,0,ES1865A
28.0077379995539,-16.655913,18,19,0,ES1768A
26.6564,119.5228,1,40,0,宁德一中(20190319启用)
24.77908333,113.6734722,1,51,0,韶关学院
24.476666667,118.15138889,8,44,0,洪文
22.7906,108.439,2,50,0,仙葫
21.6158,108.3411,3,49,0,沙万
19.6582,-99.0965,5,19,0,Villa de las Flores
19.3502,-99.1571,1,23,0,Santiago Acahualtepe
19.4525,-99.086,5,19,0,FES Aragon
-27.7708,153.03,2,50,0,North Maclean
-32.8961111,151.6691667,1,51,0,Wallsend
58.99677,11.52769,17,35,0,Prestebakke
52.484168,13.123698,5,47,0,DEBB075
52.437165,-1.829999,5,47,0,Birmingham Acocks Green
51.9745,4.9233,4,48,0,Cabauw-Wielsekade
50.892377,14.822846,23,29,0,DESN045
50.3088728068236,2.80737001016612,4,48,0,FR28022
50.1728248596191,12.6728181838989,7,45,0,CZ0KSOM
49.4015960693359,15.6102457046509,1,51,0,CZ0JJIH
49.2794,-122.9711,1,51,0,Kensington Park
47.8005658610427,3.57639077544232,6,45,0,FR26019
46.952499,-122.5952,8,19,0,Yelm-Northern Pacifi
47.0147,-70.8644,27,25,0,François
46.1699762563887,1.86999597749308,8,44,0,FR35005
46.4425,-72.8928,6,46,0,Charette
45.8900054295449,0.900004116853666,2,50,0,FR35002
45.6166,-122.516602,1,26,0,Vancouver-Blairmont
45.55,-94.1333,4,32,0,St. Cloud
45.8156,-70.8597,20,31,0,HILAIRE
45.0578285069866,5.67669682547797,1,51,0,FR15045
44.803179,20.400152,19,21,0,RS0036A
44.7072,-89.7697,7,24,0,LAKE DUBAY
43.895,81.2867,6,46,0,新政府片区
44.2967,86.0497,7,45,0,艾青诗歌馆
44.377794,-70.854697,3,26,0,Bethel Smith Farm Ro
42.6725,-81.1647,4,48,0,Port Stanley
42.4006,-76.6538,3,49,0,Connecticut Hill
41.842778,-111.85194,11,41,0,Smithfield
41.5441046504669,0.829933196,2,48,0,ES2034A
41.5931,120.4439,6,46,0,西梁
41.1042,121.835,5,47,0,新生街道
41.1556,122.0247,4,48,0,开发区
41.1196,123.044,2,50,0,深沟寺
41.569444,-8.456944,1,50,0,PT01042
40.4216666594698,-3.68222222,4,43,0,ES0118A
40.3241699994701,-3.87639,5,44,0,ES1568A
39.6776599994721,2.68665,15,24,0,ES1827A
40.0519,-88.3724,3,49,0,Bondville
39.8608,-76.4619,4,48,0,York DW
39.3606,112.4549,1,51,0,朔唯
39.045857,-90.849189,2,35,0,Foley West
38.920835,-86.080523,3,48,0,Brownstown
38.62901,-82.45886,5,30,0,Wilgus
38.5036,106.1358,8,44,0,学院路
37.90084,-90.42388,5,32,0,BONTERRE
38.088902,-88.625,7,35,0,KNIGHT_P
37.6583,-120.9936,1,15,0,Modesto - 14th Stree
37.062,114.4854,11,41,0,市环保局
36.8474499994843,-2.03819,10,39,0,ES0624A
36.1939,113.0972,10,42,0,监测站
36.087,114.358,2,50,0,银杏小区
36.085,-83.7644,1,40,0,EASTKNOX
35.9919,-78.8964,4,23,0,Durham Armory
35.3461,-118.8511,1,15,0,Edison
35.562801,-83.4981,15,14,0,Clingmans Dome - GSM
33.7433,-84.7789,6,33,0,Douglasville
31.9017,119.9167,8,32,0,安家
31.9306,-106.6306,13,39,0,La Union
31.56,120.294,1,51,0,曹张
30.4197,-91.1819,11,38,0,LSU
30.3119,120.12,1,51,0,和睦小学
29.823319,-94.983786,9,43,0,Baytown Garth C1017
29.995,-90.8172,9,40,0,Convent
29.5947,105.0717,7,45,0,东兴区政府
29.389,106.513,2,50,0,鱼新街
29.41569,106.5506,4,49,0,龙洲湾(启用161119)
29.514999,-98.620003,4,48,0,San Antonio Northwes
28.5061599995488,-13.84898,9,28,0,ES2025A
27.8336,113.251,6,46,0,大京风景区
27.4948,114.0944,10,42,0,武功山气象站
28.0797,116.2239,8,44,0,桐源党溪
27.7636519995564,-15.563851,14,23,0,ES1741A
26.5747,107.9783,20,32,0,市环境监测站
26.0797,119.268,5,47,0,杨桥西路
25.586399,-80.326897,4,44,0,Perdue
23.4714,116.7519,4,48,0,澄海子站
22.7019,110.1106,1,51,0,寒山水库
6.2299724,-75.5491943,1,51,0,MED-MIRA - Tanque Miraflores
52.33468,14.52596,7,45,0,DEBB092
52.47609,-1.875024,11,40,0,Birmingham A4540 Roadside
50.6835250854492,14.0411949157715,16,36,0,CZ0UULK
49.8688854647733,2.23980543050657,5,47,0,FR18035
49.300731,8.700103,1,51,0,DEBW010
49.419528,8.6767,1,51,0,DEBW009
45.4817833259067,4.42966453121609,1,51,0,FR29439
45.7667,126.635,1,51,0,道外承德广场
45.4431,-73.4686,4,46,0,Brossard
44.7409,11.9419,1,50,0,OSTELLATO
42.229891,-122.7877,12,12,0,Talent - Rapp Lane
41.6447,-76.9392,7,45,0,Tioga County
40.984969,-96.671425,10,27,0,Davey
41.206667,-8.552778,3,47,0,PT01023
40.8033,111.658,4,48,0,小召
40.6592,122.2414,6,46,0,学府南路
40.2943,-110.009,2,50,0,Roosvelt
40.356694,-83.063971,3,33,0,Delaware
40.269,-80.244,5,47,0,Houston
40.3727777694699,-3.61194444,7,42,0,ES1941A
39.6679,118.2185,3,49,0,陶瓷公司
39.529481,-84.393364,5,31,0,Middletown
39.9611,-77.4756,19,33,0,Methodist Hill
38.937801,-121.103897,2,50,0,Auburn
38.72528,-120.82192,19,17,0,Placerville
38.4928,112.7003,3,49,0,会展中心
38.4153,112.7283,3,39,0,市政府(20190313启用)
38.1398,114.5019,8,44,0,西北水源
38.0524,114.5214,5,46,0,人民会堂
37.5325,122.0508,4,48,0,山大分校
37.5072,122.1067,1,51,0,市监测站
37.17,-78.31,5,47,0,Prince Edward
37.7825499994797,-3.78157,7,42,0,ES1656A
36.61763,114.5129,2,50,0,环保局
36.8041,117.8512,5,47,0,三金集团
37.104089999483,-6.73408,15,32,0,ES1793A
36.5060199994861,-6.26857,11,39,0,ES1479A
36.9230999994839,-2.46322,7,43,0,ES1785A
35.259,113.1992,4,48,0,影视城(对照点)
35.05045,-118.14778,23,13,0,Mojave - 923 Poole S
35.2994,-106.5483,2,50,0,Bernalillo
34.5667,117.732,4,48,0,台儿庄区环保局
32.5714,110.8839,7,45,0,铁二处
32.0903,112.2106,6,46,0,襄州航空路
31.7656,-106.455,4,46,0,Chamizal C41
30.7856,106.1064,2,50,0,高坪区监测站
30.4742,114.9028,4,48,0,职工中心
31.0935,120.978,3,49,0,青浦淀山湖
29.966942,76.875879,1,27,0,Sector-7, Kurukshetra - HSPCB
29.6541,91.1774,5,47,0,西藏大学
30.0874,103.8416,3,49,0,气象局
29.7128,118.3057,17,35,0,延安路89号
30.1808,120.088,2,50,0,云栖
29.5983,106.296,4,48,0,虎溪
29.305,120.091,3,48,0,江东
28.9903099995439,-13.51655,13,24,0,ES1864A
28.3419248,77.319699,9,22,0,Nathu Colony, Ballabgarh - HSPCB
28.6316945,77.2494387,1,28,0,ITO, Delhi - CPCB
28.5918245,77.2273074,2,27,0,Lodhi Road, Delhi - IMD
28.815329,77.15301,2,29,0,Alipur, Delhi - DPCC
27.8072,114.4011,3,49,0,市广电局
26.1445,91.7362,27,3,0,Railway Colony, Guwahati - APCB
26.4519,111.5989,3,49,0,冷水滩区环保局
25.771061,73.340227,12,20,0,Indira Colony Vistar, Pali - RSPCB
24.5886166,73.6321397,14,15,0,Ashok Nagar, Udaipur - RSPCB
25.105917,121.5145,2,50,0,Shilin
23.7208,109.2131,12,40,0,来宾二中
24.2719,116.0797,2,50,0,梅县新城
23.65889,116.6183,10,42,0,市政府
18.5011743,73.8165527,3,26,0,Karve Road, Pune - MPCB
17.349694,78.451437,9,19,0,Zoo Park, Hyderabad - TSPCB
16.507014,80.627767,15,4,0,PWD Grounds, Vijayawada - APPCB
13.67,79.35,6,26,0,Tirumala, Tirupati - APPCB
-21.0321286605182,55.2325559179751,7,44,0,FR38021
55.6743033303032,12.571113917497,7,45,0,DK0034A
55.7002810664676,12.5614121124285,3,49,0,DK0045A
53.63074,10.110595,9,43,0,DEHH047
53.570583,10.214871,2,50,0,DESH016
53.5453,-113.4992,3,49,0,Edmonton Central
52.28881,-1.533119,12,40,0,Leamington Spa
51.9142,4.47992,3,49,0,Rotterdam-Schiedamsevest
50.970024,9.80026,1,51,0,DEHE032
49.991518,9.117973,19,33,0,DEBY005
49.869422,9.171544,19,33,0,DEBY004
49.804695,9.95642,9,43,0,DEBY077
49.44406,10.325,11,41,0,DEBY124
48.6458392908865,4.96611146943374,1,51,0,FR14042
46.8508,-70.4528,2,47,0,N.-D.-du-Rosaire
45.7577305095241,4.85421731764382,2,50,0,FR20062
45.7478,126.593,4,48,0,道里建国路
45.6842,126.6206,4,48,0,省农科院
45.9075,-71.9492,3,49,0,Tingwick
45.260022389241,1.75999727095265,2,50,0,FR35006
43.9428995172389,4.67968364109224,3,48,0,FR08209
44.4572,-95.835,6,31,0,Marshall
44.4428,-87.5061,3,28,0,KEWAUNEE
44.351665,-68.227219,13,10,0,Bar Harbor - Cadilla
43.5625273554356,7.00721854224592,4,48,0,FR24009
43.85,125.217,1,51,0,岱山公园
43.83447,-123.035375,17,6,0,Saginaw - Delight Va
43.1533299994642,-4.25306,7,30,0,ES1531A
42.534882999465,1.716986,23,12,0,AD0945A
42.51831,-89.06347,1,29,0,Beloit-Converse
42.974461,-81.200858,13,39,0,London
42.0044399994659,20.96807,1,51,0,MK0041A
42.0186,121.6561,10,42,0,长青街
42.2864,123.8489,7,45,0,银州路东段
41.6708,-87.7325,5,44,0,ALSIP
40.9359,117.963,1,51,0,开发区
41.1519,-73.1036,4,27,0,Stratford
39.5511,-75.7308,7,40,0,LUMS 2
38.9138199994749,1.41426,2,47,0,ES1246A
39.13868,-121.61884,3,33,0,Yuba City
38.71209,-121.38109,6,46,0,Antelope - North Hig
38.663611,-9.157778,1,50,0,PT03083
38.6016,105.9512,12,40,0,贺兰山马莲口
38.3254,116.8584,9,43,0,电视转播站
38.403765,-122.818294,5,47,0,Sebastopol
38.4902,-90.7052,25,11,0,Pacific
38.5042,-76.811897,11,28,0,Southern Maryland
37.7778,112.4783,4,36,0,金胜
37.8564,113.5753,6,46,0,市中心
36.5672,-118.777199,3,27,0,Sequoia and Kings Ca
35.26,-79.84,5,47,0,Candor
34.5814,105.7281,2,50,0,进步巷
34.6686,112.4433,3,49,0,凯旋路小学
34.445301,-119.827797,1,51,0,Goleta
34.0117,113.8331,1,51,0,监测站
32.8913,117.4186,1,51,0,蚌埠学院
31.7275,113.3583,3,49,0,市委党校
31.6908,113.3833,2,50,0,市林业局
30.379589,76.778328,8,23,0,Patti Mehar, Ambala - HSPCB
31.1108,104.3539,2,50,0,耐火材料厂
30.3944,114.8878,10,42,0,市政府
30.0744,103.8578,12,40,0,市委党校
29.1242,110.4697,4,48,0,电业局
29.0289,111.7153,3,49,0,武陵区永安(启用171130)
28.4088421,77.3099081,7,22,0,Sector- 16A, Faridabad - HSPCB
28.757294,77.278792,2,26,0,Loni, Loni Dehat - UPPCB
28.406963,77.849831,8,24,0,Yamunapuram, Bulandshahr - UPPCB
28.2325,113.0833,3,49,0,经开区环保局
28.060249,76.113115,9,22,0,Shastri Nagar, Narnaul - HSPCB
27.72,106.9178,1,51,0,干田坝
27.7314,112.0194,3,49,0,市委党校
22.969611,72.6435,14,17,0,Phase-4 GIDC, Vatva - GPCB
23.3667,116.6794,2,50,0,金平子站
22.611968,88.347422,8,21,0,Ghusuri, Howrah - WBPCB
22.4795,120.41175,5,47,0,Linyuan
21.101789,-101.6347,5,42,0,Estaci��n CICEG
18.247769049494,99.766891808156,21,31,0,Sop Pat, Mae Mo
12.951913,77.539784,2,30,0,Bapuji Nagar, Bengaluru - KSPCB
55.862281,-3.205782,5,47,0,Bush Estate
47.8319337214448,-1.83632712064428,5,46,0,FR19008
45.828968,-119.262991,12,12,0,Hermiston - Municipa
44.8702622204614,4.87628892417463,1,51,0,FR36001
45.25928,-122.588151,6,16,0,Portland - Spangler
43.8291454141088,4.64295152912459,1,19,0,FR08204
43.81523,-87.79194,3,28,0,Sheboygan-Haven
43.1683,-83.4617,2,34,0,OTISVILLE
43.656765,-70.629135,6,23,0,West Buxton
43.2549999994641,-2.90222222,1,50,0,ES1713A
43.1722222194642,-2.63583333,1,50,0,ES1490A
43.1008,-89.3572,2,28,0,MADISON EAST
41.999169999466,21.44084,2,50,0,MK0043A
42.3361099994653,-3.63611,3,47,0,ES1443A
41.1507788944678,1.120171923,2,49,0,ES1208A
40.464722,-109.56083,2,50,0,Vernal #4
40.515,-78.3889,4,48,0,Altoona
39.65782,118.1838,6,46,0,十二中
39.708454,-121.617309,7,26,0,Paradise - Airport
40.1192199994707,-3.83279,6,44,0,ES1963A
38.9847,-75.5556,3,49,0,KILLENS
38.065,-84.5,4,32,0,NEWTWN
38.474998,-77.767799,7,29,0,SUMERDUCK
38.1147222194782,-1.86861111,2,48,0,ES1882A
37.2831,-83.2203,4,33,0,HAZ2
35.8522911094898,14.53898621,8,39,0,MT00004
36.2403,120.4001,1,51,0,城阳区子站
36.3028,-79.4667,5,22,0,CHERRYGR
36.2338599994876,-5.6635,8,42,0,ES1648A
36.2087899994878,-5.39138,11,39,0,ES1169A
35.5997,103.2064,1,51,0,州委党校
34.942872,-120.435611,3,33,0,Santa Maria - Broadw
35.345607,-118.851825,2,34,0,Edison
34.3672,107.1906,2,50,0,三陆医院
34.2749,108.882,7,45,0,高压开关厂
34.6575,109.2,6,46,0,阎良区
34.5885,119.176,3,49,0,市环境监测站
34.820556,-89.987778,1,35,0,HERNANDO
34.1311,-80.868301,2,43,0,Sandhill
32.8928,115.8275,4,48,0,市监测站
32.0197,112.155,4,48,0,襄城运动路
32.1342,114.0681,1,51,0,市酿酒公司
32.2786,118.3244,2,50,0,人大宾馆
32.4867,119.9,6,46,0,公园路
30.6347,105.8161,2,50,0,行政中心
30.7157,111.3009,6,46,0,四零三
30.5719,114.3672,3,49,0,东湖梨园
30.483168,-97.8723,6,46,0,Audubon C38
28.3169,109.7325,3,49,0,州政府
24.5183,114.6622,10,24,0,漳州党校(20190503启用)
23.5353,116.3697,5,47,0,新兴
23.5739,116.3594,4,48,0,东兴
21.6669,110.9067,10,42,0,健康路
21.2679,110.3316,3,49,0,麻章区环保局
19.2669,-98.886,1,1,0,Chalco
14.040299305494,100.60873959621,2,50,0,Khlong Nueng, Khlong Luang
13.567696531322,100.78940318041,2,50,0,Bang Sao Thong, Bang Sao Thong
13.588554,101.286359,1,51,0,Wang Yen, Plaeng Yao
54.17133,12.080003,4,47,0,DEMV021
52.2989,-113.7942,5,47,0,RED DEER RIVERSIDE D
51.8674,4.35524,1,51,0,Hoogvliet-Leemkuil
51.406968,6.965643,2,50,0,DENW247
50.7482369340289,2.25978396242539,1,51,0,FR10041
50.889814,6.985164,2,50,0,DENW059
51.303772,13.009406,1,51,0,DESN076
50.4651921568256,3.93971432552384,1,44,0,BETN070
50.428995,4.458681,1,46,0,BETR502
49.783942,6.690488,1,51,0,DERP047
49.423137,7.293522,1,51,0,DERP013
49.825165,8.516798,2,50,0,DEHE043
49.7350845336914,16.0341968536377,11,41,0,CZ0ESVR
48.7991511040226,2.13055232565195,1,51,0,FR04029
48.9622002533359,4.36000018093262,2,50,0,FR14022
49.009869,-123.082017,4,48,0,Tsawwassen
47.2946392167447,6.82585766953502,1,51,0,FR82030
47.47706,11.05722,2,50,0,DEBY196
45.675001076592,6.389725599095,3,49,0,FR33121
44.5001,11.2861,1,50,0,VIA CHIARINI
44.2839,12.3322,1,50,0,DELTA CERVIA
43.6578145387488,6.92095332551192,3,49,0,FR24015
43.3665299994639,-5.83303,2,48,0,ES1269A
42.648872,21.137121,6,42,0,Prishtine - IHMK
41.755798,-87.545303,4,38,0,CHI_SWFP
42.0603,-87.8631,2,32,0,DESPLNS
41.8131,-88.0728,5,31,0,LISLE
42.2781,-85.5419,2,34,0,KALAMAZOO
41.1189,-73.3369,2,29,0,Westport
40.5764,-105.0794,7,44,0,Fort Collins - CSU -
40.481349,-86.109718,4,47,0,Kokomo - E. Vaile Av
39.41,-76.2967,1,38,0,Edgewood
38.738889,-9.2075,1,47,0,PT03082
38.4519,112.7383,5,47,0,开发区
37.1337899994828,-6.80745,1,47,0,ES1792A
37.7844399994797,-3.81032,8,42,0,ES1824A
36.6739,117.114,6,44,0,开发区
36.1358,-118.8108,3,49,0,Springville
35.774455,-117.372109,1,51,0,Trona - Athol and Te
35.6322,-83.9422,2,50,0,Look Rock - GSMNP
35.428,116.6305,1,51,0,火炬城
35.1967,-90.1911,5,47,0,MARION
34.5101,109.5293,2,50,0,农科所
33.7206,-84.3578,1,38,0,Confederate Ave
32.7917,-115.5617,3,45,0,El Centro - 9th Stre
33.37,-112.6207,15,37,0,Buckeye
32.579361,-116.929486,2,50,0,Otay Mesa - Donovan
31.85805556,106.7619444,3,49,0,职业中学
30.6103,114.4272,1,51,0,青山钢花
30.8596,120.1844,1,51,0,吴兴区站
30.7525,120.7844444,2,50,0,南湖区残联
