lat,lon,count_A,count_B,count_C,location
66.312191,14.149923,26,10,0,Moheia Vest
65.0099699995891,25.47132,43,9,0,FI00446
64.8458,-147.72727,23,4,0,NCore
64.762973,-147.310297,38,8,0,North Pole Fire Stat
61.205861,-149.8246,24,28,0,Garden
61.3267,-149.569707,9,21,0,Parkgate (Eagle Rive
61.534163,-149.031655,28,24,0,Butte (Harrison Cour
61.5989,-149.106216,17,13,0,Palmer
60.79646,11.09777,37,15,0,Vangsveien, Hamar
60.88593,10.93785,40,12,0,Ringsakervegen
60.79583,-161.767,20,7,0,Bethel
59.914106,10.82263,32,19,0,Bryn skole
60.170873,10.261552,17,7,0,Hønefoss skole
59.9181,10.5839,32,20,0,Bekkestua
59.92556,10.850367,34,18,0,E6 Alna senter
59.92773,10.84633,20,22,0,Alnabru
59.92295,10.76573,31,21,0,Sofienbergparken
59.90608,10.61195,36,16,0,Eilif Dues vei
59.93233,10.72447,25,23,0,Kirkeveien
59.91898,10.69707,27,22,0,Bygdøy Alle
59.91132,10.70407,27,25,0,Hjortnes
59.928612,10.953203,37,15,0,Solheim
59.057304,9.695568,31,21,0,Furulund
59.15927,9.63565,22,30,0,Lensmannsdalen
59.433471,10.66176236,26,26,0,Kransen
59.123314,11.391136,18,8,0,Vaterland
59.27377544,11.08919017,38,13,0,Alvim
59.2103,10.9454,37,10,0,St.Croix
58.388889,-134.565556,40,12,0,Floyd Dryden
58.7083,-111.1764,36,16,0,Fort Chipewyan
56.7328,-111.39,42,10,0,Athabasca Valley
56.7522,-111.4761,42,10,0,Patricia McInnes
57.1889,-111.6406,35,17,0,Fort McKay
56.3194399995049,22.87084,51,1,0,LT00021
55.944079,-4.734421,39,13,0,Greenock A8 Roadside
56.010319,-3.704399,43,9,0,Grangemouth
55.945589,-3.182186,43,9,0,Edinburgh St Leonards
55.1964,-119.3967,36,16,0,Beaverlodge
55.860936,-4.238214,48,4,0,Glasgow High Street
55.865782,-4.243631,46,6,0,Glasgow Townhead
54.8951279994952,23.986222,52,0,0,LT00041
54.8836135894951,23.8358345,51,1,0,LT00044
54.43951,-7.900328,40,12,0,Lough Navar
55.002818,-7.331179,35,15,0,Derry Rosemount
54.59965,-5.928833,40,8,0,Belfast Centre
54.894834,-2.945307,41,11,0,Carlisle Roadside
54.569297,-1.220874,39,13,0,Middlesbrough
54.97825,-1.610528,34,18,0,Newcastle Centre
54.565819,-1.3159,36,16,0,Stockton-on-Tees A1305 Roadside
54.516667,-1.358547,40,12,0,Stockton-on-Tees Eaglescliffe
53.924712,9.532635,51,1,0,DESH015
53.638291,9.998009,51,1,0,DEHH033
53.835492,10.695936,52,0,0,DESH023
54.304676,10.135158,52,0,0,DESH027
54.09323,10.240596,52,0,0,DESH008
54.092278,12.141994,51,0,0,DEMV020
53.78175,12.175512,51,0,0,DEMV019
54.17729,12.09792,51,0,0,DEMV031
53.817775,12.064708,51,0,0,DEMV004
54.0558,-128.6739,37,15,0,Kitimat Riverlodge
53.973301,-128.650299,41,11,0,Kitimat Haisla Villa
54.0403,-128.3825,37,15,0,KITIMAT WHITESAIL
54.0163,-124.006104,17,5,0,Vanderhoof BAM
53.9147,-122.7419,34,18,0,PRG Plaza 400
53.76559,-2.680353,42,10,0,Preston
53.80378,-1.546472,40,10,0,Leeds Centre
53.819972,-1.576361,43,9,0,Leeds Headingley Kerbside
53.3304,6.27681,47,5,0,Kollumerwaard-Hooge Zuidwal
53.2178,6.5789,48,4,0,Groningen-Europaweg
53.2465,6.60894,49,3,0,Groningen-Nijensteinheerd
53.59617,8.09059,52,0,0,DENI031
53.060045,8.916966,52,0,0,DEHB002
53.1177,8.69506,52,0,0,DEHB013
53.592301,10.053859,51,1,0,DEHH068
53.50793,9.990569,52,0,0,DEHH059
53.523262,10.021227,52,0,0,DEHH015
53.56414,9.967882,52,0,0,DEHH008
53.564399,9.94458,52,0,0,DEHH064
52.93189,12.809481,52,0,0,DEBB048
53.396348,12.463929,50,0,0,DEMV024
53.064262,14.285139,52,0,0,DEBB029
53.520456,14.257407,51,0,0,DEMV012
52.9822,-122.4922,37,15,0,Quesnel Senior Secon
53.1325,-117.09111,37,13,0,Steeper
53.37,-115.1906,28,24,0,Tomahawk
53.5028,-113.6111,38,14,0,Edmonton South
53.5472,-113.3681,33,19,0,Edmonton East
53.564411,-113.562583,34,18,0,Edmonton Woodcroft
53.353889,-6.278056,51,1,0,IE0028A
53.34633,-2.844333,43,9,0,Liverpool Speke
53.54914,-2.638139,43,9,0,Wigan Centre
53.48152,-2.237881,45,7,0,Manchester Piccadilly
53.48481,-2.334139,46,6,0,Salford Eccles
53.38928,-2.615358,48,4,0,Warrington
53.02821,-2.175133,48,4,0,Stoke-on-Trent Centre
53.231722,-1.456944,47,5,0,Chesterfield Roadside
52.95473,-1.146447,47,5,0,Nottingham Centre
53.40495,-1.455815,46,6,0,Sheffield Barnsley Road
53.378622,-1.478096,47,4,0,Sheffield Devonshire Green
52.614193,1.301976,39,13,0,Norwich Lakenfields
52.3813,4.84523,52,0,0,Amsterdam-Einsteinweg
52.3597,4.86621,52,0,0,Amsterdam-Vondelpark
52.394,4.87016,52,0,0,Amsterdam-Westerpark
52.463,4.60184,52,0,0,IJmuiden-Kanaaldijk
52.494,4.60199,52,0,0,Wijk aan Zee-Burgemeester Rothestraat
52.334,4.77401,52,0,0,Badhoevedorp-Sloterweg
52.4893,4.64053,52,0,0,Beverwijk West-Creutzberglaan
52.4744,4.6288,52,0,0,Velsen-Staalstraat
52.4789,4.57934,52,0,0,Velsen-Reijndersweg
52.448,4.81671,52,0,0,Zaandam-Wagenschotpad
52.3984,4.72858,52,0,0,Amsterdam-Spaarnwoude
52.428,4.77348,52,0,0,Amsterdam-Hoogtij
52.2966,4.51082,43,9,0,De Zilk-Vogelaarsdreef
52.39,4.88781,52,0,0,Amsterdam-Van Diemenstraat
52.358,4.8997,52,0,0,Amsterdam-Stadhouderskade
52.2345,6.91949,50,2,0,Enschede-Winkelhorst
52.49855,7.31747,50,2,0,DENI043
52.25534,8.05286,51,1,0,DENI038
52.2703,8.04147,50,1,0,DENI067
52.17017,9.06255,51,1,0,DENI041
52.36292,9.70612,49,0,0,DENI054
52.359478,9.7155,49,0,0,DENI048
52.800773,10.756733,44,0,0,DEUB005
52.15369,10.45591,52,0,0,DENI070
52.131742,11.631919,9,0,0,DEST112
52.393932,13.037474,52,0,0,DEBB054
52.194225,12.561389,52,0,0,DEBB065
52.484168,13.123698,52,0,0,DEBB075
52.832467,13.822211,52,0,0,DEBB060
52.481882,13.84825,1,0,0,DEBB099
52.677651,13.582269,52,0,0,DEBB068
52.349703,13.424304,52,0,0,DEBB086
52.563835,14.015252,52,0,0,DEBB053
52.33468,14.52596,52,0,0,DEBB092
52.146264,14.638166,52,0,0,DEBB032
52.1361,-106.6631,46,6,0,Saskatoon
52.47609,-1.875024,49,3,0,Birmingham A4540 Roadside
52.619823,-1.127311,43,9,0,Leicester University
52.437165,-1.829999,46,6,0,Birmingham Acocks Green
52.411563,-1.560228,51,1,0,Coventry Allesley
52.28881,-1.533119,49,3,0,Leamington Spa
52.294884,-1.542911,48,4,0,Leamington Spa Rugby Road
51.544206,0.678408,45,7,0,Southend-on-Sea
51.518167,0.439548,43,7,0,Stanford-le-Hope Roadside
51.45617,0.634889,47,5,0,Rochester Stoke
51.9778,4.12194,52,0,0,Hoek v. Holland-Berghaven
51.8674,4.35524,52,0,0,Hoogvliet-Leemkuil
51.8911,4.48069,52,0,0,Rotterdam Zuid-Pleinweg
51.8936,4.48753,52,0,0,Rotterdam Zuid-Zwartewaalstraat
51.8694,4.58006,52,0,0,Ridderkerk-Hogeweg
51.9385,4.43069,52,0,0,Rotterdam-Oost Sidelinge A13
51.9214,4.40139,52,0,0,Schiedam-Alphons Arienstraat
51.932,4.22802,52,0,0,Maassluis-Kwartellaan
51.5935,4.82494,35,17,0,Breda-Tilburgseweg
51.6031,4.78102,40,12,0,Breda-Bastenakenstraat
52.0771,4.28919,43,9,0,Den Haag-Rebecquestraat
51.9271,4.46134,40,12,0,Rotterdam-Bentinckplein
51.5184,5.14845,44,8,0,Biest Houtakker-Biestsestraat
51.4074,5.39333,43,9,0,Veldhoven-Europalaan
52.1013,5.12818,52,0,0,Utrecht-Griftpark
51.9745,4.9233,42,10,0,Cabauw-Wielsekade
51.4541,6.1082,52,0,0,Horst a/d Maas-Hoogheide
51.5405,5.85307,45,7,0,Vredepeel-Vredeweg
52.1116,5.70842,48,4,0,Wekerom-Riemterdijk
51.8414,5.85778,45,7,0,Nijmegen-Graafseweg
51.8382,5.85694,41,11,0,Nijmegen-Ruyterstraat
51.485492,6.735431,52,0,0,DENW338
51.496527,6.981045,52,0,0,DENW024
51.406968,6.965643,52,0,0,DENW247
51.533646,7.101786,52,0,0,DENW022
51.672809,6.629576,52,0,0,DENW030
51.448762,7.582295,52,0,0,DENW179
51.536911,7.457463,52,0,0,DENW008
51.547495,7.693835,52,0,0,DENW010
51.641383,7.331405,52,0,0,DENW002
51.443012,8.360714,52,0,0,DENW181
51.430897,8.928171,52,0,0,DEHE046
51.5302,9.92833,52,0,0,DENI068
51.55107,9.94976,52,0,0,DENI042
51.662435,11.043386,52,0,0,DEST098
51.896982,11.057442,52,0,0,DEST044
51.496165,11.979064,52,0,0,DEST050
51.837306,11.891412,52,0,0,DEST104
51.58395,-3.770822,30,22,0,Port Talbot Margam
51.632696,-3.947374,39,13,0,Swansea Roadside
51.48178,-3.17625,45,7,0,Cardiff Centre
51.638094,-2.678731,43,9,0,Chepstow A48
51.601203,-2.977281,44,8,0,Newport
51.462839,-2.584482,41,4,0,Bristol St Paul's
51.374264,0.54797,40,12,0,Chatham Roadside
51.01628,2.582323,48,0,0,BETN029
51.2545736228328,3.3625358887016,49,0,0,BETN012
50.9453592417478,3.15240159047001,49,0,0,BETM705
50.8148738703176,3.32249431903728,49,0,0,BETN052
50.953177280636,3.12115559890125,48,0,0,BELRL01
50.9172284414243,3.30738579933576,49,0,0,BELOB01
50.7065553864362,3.18065594332915,40,12,0,FR11034
50.6408018273658,3.07477152078998,41,10,0,FR11007
50.6280389569951,3.09031237520525,39,13,0,FR11025
51.058332,3.729298,49,0,0,BETR701
51.1246905122968,3.73950422044193,48,0,0,BETR731
51.196063,3.82292,48,0,0,BETR750
51.0406894198246,3.73497147968531,48,0,0,BETR702
50.9149529612786,3.37621163108602,49,0,0,BELOB02
50.895101,4.392718,48,0,0,BETMEU1
50.8580305936746,4.2883363663059,48,0,0,BETB011
50.8835598117798,4.38296325180234,48,0,0,BETN043
50.9775413785115,4.83761801569861,49,0,0,BETN035
51.0920000379014,4.38010354488249,49,0,0,BETR834
51.3487952923282,4.33970994711987,49,0,0,BETR831
50.9413871149913,4.43672076353407,49,0,0,BETR020
50.655439,4.668288,48,0,0,BETN063
51.2631177172701,4.27888982166783,49,0,0,BELAL05
50.9130204234224,4.51218434619029,49,0,0,BELSZ02
50.9145761375644,4.50418332331232,50,0,0,BELSZ01
51.2336522065588,5.16397884633176,48,1,0,BETN016
50.9278918436631,5.47062003748762,3,0,0,BELGK06
50.7117060941316,5.10315860945395,43,0,0,BETN054
50.9844,5.82223,52,0,0,Geleen-Asterstraat
50.8459,5.71475,52,0,0,Maastricht-A2 Nassaulaan
50.8521,5.6758,52,0,0,Maastricht-Hoge Fronten
50.8598,5.71381,52,0,0,Maastricht-A2 Kasteel Hillenraadweg
50.888,5.9705,45,7,0,Heerlen-Looierstraat
50.9003,5.98685,46,6,0,Heerlen-Jamboreepad
50.658444,5.627835,48,0,0,BETR221
50.883475,6.469363,52,0,0,DENW074
51.031473,7.010934,52,0,0,DENW355
51.249211,6.732383,52,0,0,DENW071
51.342561,6.670195,52,0,0,DENW116
50.947367,6.957701,52,0,0,DENW212
51.169967,6.458842,2,0,0,DENW100
51.277647,7.231895,51,1,0,DENW114
50.979455,11.037924,51,1,0,DETH020
50.972331,11.010446,52,0,0,DETH081
50.655861,12.205199,51,1,0,DETH036
51.197249,11.96096,49,3,0,DEST108
50.791616,11.661233,49,3,0,DETH061
50.6831245422363,13.9978733062744,38,14,0,CZ0UULD
50.7741508483887,14.2187938690186,40,12,0,CZ0UDCM
50.6835250854492,14.0411949157715,31,21,0,CZ0UULK
50.7551002502441,15.0699672698975,29,23,0,CZ0LLIL
51.125286,71.46722,41,5,0,US Diplomatic Post: Astana
51.047611,-114.075165,30,22,0,Calgary Central2
51.074793,-4.041924,41,11,0,Barnstaple A39
51.149617,-1.438228,37,15,0,Chilbolton Observatory
50.90814,-1.395778,30,22,0,Southampton Centre
50.73957,-1.826744,31,21,0,Bournemouth
50.735454,-1.780888,37,15,0,Christchurch Barrack Road
49.9180174823908,1.07397185477625,43,9,0,FR25051
50.610484351663,1.99144820390604,48,3,0,FR10132
50.5354044876555,2.63569297621804,44,8,0,FR28028
50.378240795397,3.06586023317151,45,7,0,FR06003
50.4651921568256,3.93971432552384,45,1,0,BETN070
50.6167184021922,3.45762442718173,45,2,0,BETN060
50.3642606948305,3.52273440352186,42,10,0,FR06006
50.4164333599369,4.52113020813044,47,1,0,BETR510
50.4078101998156,4.39589711703924,49,0,0,BETR512
50.409311,4.452172,48,0,0,BETR501
50.095683,4.594763,48,1,0,BETN100
50.377592,4.4247,48,1,0,BETR511
50.428995,4.458681,47,1,0,BETR502
49.9077785386149,4.62999782272758,41,11,0,FR14008
50.6119227069516,5.61114976281943,48,0,0,BETM204
50.624992,5.547464,49,0,0,BETH201
50.0270290177478,5.59301691406644,47,0,0,BETN113
50.620671,5.516405,48,1,0,BETR223
50.274478,5.235169,46,0,0,BETN093
50.583614,5.397446,48,0,0,BETR240
50.5027163414413,4.98842295409252,47,1,0,BETN073
49.877128,5.202387,45,1,0,BETN121
50.613413,5.570223,48,0,0,BETR222
50.6122775285323,5.99275271918705,48,0,0,BETN067
50.303208,6.001736,47,0,0,BETN085
50.3544,7.596583,52,0,0,DERP024
50.431398,7.460812,52,0,0,DERP046
50.4243,7.7299,52,0,0,DERP028
50.000973,8.261277,52,0,0,DERP010
49.994975,8.273965,52,0,0,DERP009
50.077191,8.230316,52,0,0,DEHE037
50.010325,8.451527,52,0,0,DEHE018
49.991518,9.117973,51,1,0,DEBY005
50.584108,8.668579,52,0,0,DEHE061
50.124589,8.691911,51,1,0,DEHE041
50.260578,10.959312,52,0,0,DEBY014
50.058195,12.18865,51,1,0,DEBY002
50.0073051452637,14.44593334198,34,18,0,CZ0ALIB
50.1438598632812,14.1017837524414,37,15,0,CZ0SKLM
50.0814819335937,14.4426918029785,41,11,0,CZ0ARIE
50.0461311340332,14.331413269043,37,15,0,CZ0ASTO
49.9579277038574,14.0583000183105,45,6,0,CZ0SBER
50.0731353759766,14.3981409072876,10,5,0,CZ0ASMI
50.4286460876465,14.9138593673706,37,15,0,CZ0SMBO
50.3019828796387,15.1783027648926,38,4,0,CZ0SROR
50.1953620910644,15.8463764190674,45,7,0,CZ0HHKB
50.0240364074707,15.7635488510132,47,5,0,CZ0EPAU
49.9246788024902,18.422872543335,33,19,0,CZ0TVER
50.4269,124.1186,34,18,0,环保局
50.4217,124.1303,39,13,0,公安局
50.2391,127.5044,31,21,0,党校
50.2538,127.4143,34,18,0,地震局　
50.2486,127.4961,29,23,0,交通局　
50.2333,-119.2833,34,18,0,Vernon Science Centr
50.285833,-107.81689,47,5,0,SPEEDY CREEK
50.45,-104.6169,43,9,0,Regina
50.37167,-4.142361,33,19,0,Plymouth Centre
50.411463,-4.227678,25,27,0,Saltash Callington Road
49.4424377204107,1.09368987526268,26,26,0,FR25036
49.2595681690121,2.47440046695438,33,19,0,FR18043
49.8428234743806,3.28143793505452,28,24,0,FR18080
49.2507146918556,4.02306008416507,44,8,0,FR14011
49.224144731874,4.02055378452238,43,9,0,FR14012
49.1677902851312,5.38745727029717,45,6,0,FR01065
49.50503999947,5.97694,48,4,0,LU0102A
49.5976899994703,6.13759,45,7,0,LU0101A
49.6115699994703,6.11847,40,12,0,LU0109A
49.719281,5.630398,47,0,0,BETN132
49.3583143914495,6.15694515952111,45,7,0,FR01020
49.783942,6.690488,52,0,0,DERP047
49.233464,6.987601,52,0,0,DESL012
49.1874042196733,6.91086524487126,47,5,0,FR22054
49.446,7.7673,52,0,0,DERP019
49.270263,7.826521,51,1,0,DERP017
49.842136,7.866208,52,0,0,DERP022
49.351143,8.423005,51,1,0,DERP053
49.455378,8.425833,52,0,0,DERP003
49.869422,9.171544,52,0,0,DEBY004
49.643238,8.642,52,0,0,DEHE063
49.804695,9.95642,52,0,0,DEBY077
49.44406,10.325,52,0,0,DEBY124
49.44591,11.088444,52,0,0,DEBY053
49.321955,12.128139,49,2,0,DEBY067
49.1489715576172,16.696216583252,49,3,0,CZ0BBNY
49.1980895996094,16.5936431884766,47,5,0,CZ0BBNV
49.2027244567871,16.6162872314453,46,6,0,CZ0BBDN
49.2132110595703,16.6780242919922,44,8,0,CZ0BBNI
49.7589950561523,16.6667213439941,49,3,0,CZ0EMTP
49.4516563415527,17.454158782959,43,9,0,CZ0MPRR
49.259391784668,17.4105606079102,47,5,0,CZ0ZTNV
49.6014633178711,17.238073348999,46,6,0,CZ0MOLJ
49.6717910766602,18.3510704040527,24,28,0,CZ0TFMI
49.856258392334,18.2697410583496,30,22,0,CZ0TOPR
49.8398475646973,18.2899761199951,32,20,0,CZ0TOCB
49.4720573425293,17.9669761657715,25,27,0,CZ0ZVMZ
49.7209358215332,18.0893058776855,24,28,0,CZ0TSTD
49.7960395812988,18.2471809387207,24,28,0,CZ0TOZR
49.8637962341309,18.5514526367188,27,25,0,CZ0TKAR
49.7909774780273,18.4068355560303,24,28,0,CZ0THAR
49.6681137084961,18.6777992248535,23,29,0,CZ0TTRO
49.7489585876465,18.6097259521484,23,29,0,CZ0TCTN
49.2261,119.7594,34,18,0,区环保局
49.1577,119.7512,27,25,0,国华电力东
49.682499,-124.996101,42,10,0,Courtenay Elementary
49.260799,-124.805603,28,24,0,Port Alberni Element
49.4417,-123.4917,6,5,0,Langdale Elementary
49.317501,-117.661697,30,22,0,Castlegar Zinio Park
49.7164,-112.8006,44,8,0,Lethbridge
48.8589975104964,2.35099889637488,19,19,0,FR04143
48.8386033565984,2.41278502161662,31,21,0,FR04329
48.9252654190423,2.35666726581768,31,21,0,FR04058
48.9908560535052,2.44472012996707,23,29,0,FR04024
48.5280649624323,2.65361436613623,31,21,0,FR04122
49.0461163533504,3.95591101667714,48,4,0,FR14028
48.5492988706458,5.46068793225859,12,4,0,FR30038
48.6458392908865,4.96611146943374,45,5,0,FR14042
49.1194269655692,6.18083136292584,47,4,0,FR01011
49.0658373075805,5.78555467160757,42,7,0,FR30033
48.6963231696882,6.14612046034746,46,4,0,FR30036
48.6881993336682,6.19043435331308,47,5,0,FR30034
48.5848471999281,6.48389599032925,49,3,0,FR30026
48.5703455482561,7.76633088993828,44,8,0,FR16038
48.376576,10.88837,52,0,0,DEBY007
48.769444,11.428766,52,0,0,DEBY021
48.853211,11.777818,51,1,0,DEBY049
48.909518,11.879245,52,0,0,DEBY028
48.573629,13.422039,52,0,0,DEBY118
48.9843864440918,14.4656839370728,47,5,0,CZ0CCBD
48.8429565429688,16.0601272583008,46,6,0,CZ0BZNO
48.7917671203613,16.7244968414307,45,7,0,CZ0BMIS
48.4366669994672,17.019722,47,5,0,SK0407A
48.8963890094683,18.04139328,48,4,0,SK0047A
48.5995579994675,18.842461,41,11,0,SK0268A
48.6669464094677,18.53084755,41,11,0,SK0013A
49.0669441194687,18.92194748,43,9,0,SK0039A
48.7333335894679,19.11527824,44,8,0,SK0263A
48.7330551094679,18.75639534,45,7,0,SK0027A
48.782652999468,18.628081,42,10,0,SK0050A
49.0791664094688,19.30252457,48,4,0,SK0008A
48.7350006094679,19.15499878,47,5,0,SK0214A
48.5580559994674,19.156667,50,2,0,SK0262A
48.9155578594683,20.42388916,49,3,0,SK0265A
48.5836105294675,19.95168495,48,4,0,SK0022A
48.6311111494676,20.24028397,52,0,0,SK0025A
48.5922203094675,21.17528534,46,6,0,SK0018A
48.7262669994678,21.258836,48,4,0,SK0267A
48.6911125194678,21.2863884,46,6,0,SK0264A
48.9933319094685,21.26749992,42,10,0,SK0266A
48.8741645794682,21.83750343,44,8,0,SK0030A
48.8863906894683,21.68750191,46,6,0,SK0031A
48.9308357194684,21.9136219,45,7,0,SK0037A
48.875,-123.65,13,2,0,Crofton Substation
49.009869,-123.082017,30,22,0,Tsawwassen
48.4292,-123.3583,28,24,0,Victoria Topaz
48.465401,-122.559998,41,11,0,Anacortes-Bartholome
48.9477,-122.1471,32,20,0,Maple Falls-Azure Wa
48.4772,-120.1906,27,25,0,Winthrop-Chewuch Rd
48.39999,-119.518959,31,21,0,Omak-Colville Tribe
48.54469,-117.903222,27,11,0,Colville-E 1st St
48.3841,-115.548,39,13,0,Libby Courthouse
48.95224,-57.92207,16,5,0,MacPherson Avenue -
48.3863972226844,-4.48681534959177,39,13,0,FR19012
47.9979271894844,2.71951477537923,30,22,0,FR34018
47.8005658610427,3.57639077544232,44,7,0,FR26019
48.2949796949513,4.05027903727389,43,9,0,FR14033
47.7374108002695,7.3090794271686,40,12,0,FR16066
47.72514,10.306561,52,0,0,DEBY031
48.149606,11.536513,52,0,0,DEBY115
48.137252,11.564924,52,0,0,DEBY037
48.154534,11.554669,52,0,0,DEBY039
47.968753,11.220172,51,1,0,DEBY109
48.326013,10.903051,51,1,0,DEBY099
47.648459,12.188324,51,1,0,DEBY121
48.173194,11.648036,52,0,0,DEBY089
48.177175,12.829314,52,0,0,DEBY012
48.371109009467,17.58501816,47,5,0,SK0045A
48.1447329994665,17.113619,39,8,0,SK0004A
47.9599999994661,17.860564,43,6,0,SK0007R
48.2830499994668,18.14112,46,6,0,SK0134A
48.3094559994669,18.076831,44,8,0,SK0269A
47.928387,106.92947,46,6,0,US Diplomatic Post: Ulaanbaatar
47.7222,128.8736,18,34,0,中心医院
47.7317,128.9094,24,28,0,林管局
48.2867,-124.6203,39,13,0,Cheeka Peak
48.294399,-122.660004,46,6,0,Oak Harbor-SW 6th (U
47.755001,-122.280602,31,21,0,Lake Forest Park-Tow
48.055,-122.175797,37,15,0,Marysville-7th Ave
48.3645,-120.1211,31,20,0,Twisp-Glover St
48.1671,-118.974748,27,8,0,Nespelem
47.6997,-117.4263,27,25,0,Spokane-Monroe St.
47.885201,-117.988602,26,26,0,Wellpinit-Spokane Tr
47.7889,-116.8044,27,24,0,Lancaster
47.808226,-117.34327,25,27,0,Colbert-Greenbluff
47.663963,-117.257652,25,27,0,Spokane-E Broadway A
48.291821,-116.556557,26,26,0,Sandpoint U of I
48.363694,-114.189272,36,16,0,Columbia Falls
48.317507,-107.862471,50,2,0,Malta
47.9721,-89.6908,41,11,0,Grand Portage
47.648889066211,-2.76389155041474,43,9,0,FR19033
47.8319337214448,-1.83632712064428,44,5,0,FR19008
48.0896957195876,-1.65902663301761,44,8,0,FR19017
47.3441490981312,0.653775897476505,46,6,0,FR34024
46.9429682344805,2.00326104989222,46,4,0,FR34057
47.2750173101874,4.09832992182145,40,12,0,FR26012
47.315472,5.037429,46,6,0,FR26043
47.3080413032157,5.06611192686193,45,7,0,FR26005
47.2474002555546,6.01541558650808,45,7,0,FR82006
47.3512703177986,6.3597218686054,44,8,0,FR82070
47.5103033076458,6.79400340956015,41,11,0,FR82010
47.5410842894654,7.5832696,26,12,0,CH0008A
46.9510019036189,7.44087126250177,27,11,0,CH0031A
47.4029160301617,8.61339728709878,25,13,0,CH0005A
47.3776165600282,8.53041092115182,26,12,0,CH0010A
47.3636,123.9305,22,30,0,安居小区
47.3386,123.9305,24,28,0,中心广场
47.3227,123.9483,21,31,0,农牧车辆厂
47.2988,123.945,23,29,0,市环境监测站
47.3489,130.3172,8,44,0,东山纸板厂
47.5309,-122.3208,25,27,0,Seattle-South Park
47.386101,-122.230202,31,18,0,Kent-James & Central
47.22634,-122.46256,32,20,0,Tacoma-S 36th St
47.1864,-122.4517,35,17,0,Tacoma-L St
47.2875,-122.2144,33,16,0,Auburn M St SE
47.562,-122.3405,27,25,0,Seattle-Duwamish
47.2656,-122.3858,34,18,0,Tacoma-Alexander Ave
46.9936,-120.545,34,18,0,Ellensburg-Ruby St
47.197587,-120.958292,1,0,0,Cle Elum_Mobile
47.5988,-120.6647,38,14,0,Leavenworth-Evans St
47.43061,-120.34195,25,27,0,Wenatchee-Fifth St
47.127998,-118.381897,38,14,0,Ritzville-Alder St
47.2313,-117.3685,32,20,0,Rosalia-Josephine St
47.3167,-116.570297,29,23,0,St. Maries
47.536712,-116.236867,33,19,0,Pinehurst
47.594395,-115.323746,30,22,0,Thompson Falls HS
47.012907,-114.224273,36,16,0,French Town - Beckwi
47.17563,-113.476182,34,18,0,Seeley Elementary Sc
47.494318,-111.303317,35,17,0,Great Falls Overlook
47.048537,-109.455315,37,15,0,Lewistown
47.342589,-102.645997,49,3,0,Lake Ilo
47.3553,-68.3211,49,3,0,Madawaska PSB
47.6094,-65.6333,50,2,0,BATHURST
47.2641063324592,-2.24985757853587,44,8,0,FR23110
47.2043914135194,-1.552827800129,46,6,0,FR23140
47.2225142859138,-1.53750254138193,41,11,0,FR23188
46.8148188300394,2.61008200746779,48,4,0,FR34038
46.7824722190452,4.84726435734473,35,17,0,FR32001
46.671325047904,5.55680766765938,39,13,0,FR82050
46.1603950441395,8.93394312993115,15,23,0,CH0033A
46.1690555550192,15.6606388888889,42,3,0,HR0012A
46.2666139994637,20.153053,38,13,0,HU0057A
46.8025,130.2719,32,20,0,佳纺
46.7975,130.3258,25,27,0,环保局
46.619,131.1651,26,26,0,南小市
46.5888,131.1572,24,28,0,苗圃
46.594952,-120.512283,38,14,0,Yakima-4th Ave
46.380199,-120.332603,30,22,0,Toppenish-Yakama Tri
46.5754,-119.0021,37,14,0,Mesa-Pepoit Way (tem
46.8153,-117.8739,33,18,0,Lacrosse-Hill St
46.397202,-116.806198,1,0,0,Lapwai-ID
46.728199,-116.954597,36,16,0,Moscow
46.2094,-116.027496,20,31,0,Kamiah-ID
46.842297,-114.020549,35,17,0,Missoula Boyd Park
46.8505,-111.987164,44,8,0,NCORE
46.6588,-112.0131,39,13,0,Rossiter Pump House
46.8511,-95.8467,45,7,0,Detroit Lakes
46.713694,-92.511722,51,0,0,Fond du Lac
46.49361,-84.364197,5,1,0,SAULT STE MARIE
46.3175,-79.4453,45,7,0,North Bay
46.35,-72.4333,35,17,0,Bécancour (Aréna)
46.77417,-71.36972,41,10,0,Parc Primavere
46.6964,-68.033096,46,6,0,MICMAC
46.682299,-68.016195,49,3,0,Presque Isle Riversi
46.4783,-63.9869,44,8,0,WELLINGTON
46.2406,-63.1306,39,13,0,CHARLOTTETOWN
46.1625559994637,-1.153603,41,11,0,FR09003
46.1616394517055,-1.21120748073119,36,10,0,FR09203
45.8310745543702,1.25687782977583,1,0,0,FR35003
45.7972643576802,3.1138302693435,49,3,0,FR07004
45.4752955881989,4.51500448320744,38,14,0,FR29426
45.7577305095241,4.85421731764382,18,4,0,FR20062
45.4200881308329,4.39542075258545,36,16,0,FR29424
45.7200501800957,4.81815894213926,40,12,0,FR20013
45.7789106049275,4.92469913483583,45,7,0,FR20046
45.5647352384336,5.92833290286553,34,18,0,FR33101
45.9236343183621,6.71361317478429,31,21,0,FR33220
45.6980277772411,18.8346388888889,40,8,0,HR0011A
45.6033,84.8861,18,34,0,长征新村
45.5828,84.8897,20,32,0,南林小区
45.6886,85.1186,16,36,0,白碱滩区
46.0872,85.6931,14,38,0,乌尔禾区商贸楼
46.0703,122.0506,23,29,0,胜华新制药厂
46.0707,122.0931,26,26,0,北滨河
45.6175,122.8211,31,21,0,市环保局
45.6289,122.8444,34,16,0,洮北区环保局
46.0347,124.8354,33,19,0,大同区
45.7258,126.646,20,32,0,动力和平路
45.755,126.542,21,31,0,岭北(对照点)
45.5422,126.979,24,28,0,阿城会宁
45.7733,126.689,17,35,0,太平宏伟公园
45.6842,126.6206,17,35,0,省农科院
45.7319,126.685,12,40,0,香坊红旗大街
45.61,126.615,19,33,0,平房东轻厂
45.7478,126.593,11,41,0,道里建国路
45.8194,130.8625,28,24,0,新建　
45.64336,-122.58737,30,22,0,Vancouver-NE 84th Av
45.863899,-122.410889,32,20,0,Yacolt-Yacolt Rd
45.735931,-121.488398,34,18,0,Mobile-White Salmon
46.002399,-112.500893,42,10,0,Butte Greely School
45.683765,-111.056282,37,15,0,Bozeman High School
45.440295,-105.37028,48,3,0,Broadus
46.0481,-89.6536,44,8,0,TROUT LAKE
45.5639,-88.81,42,10,0,POTAWATOMI
45.4322,-75.6764,31,21,0,Ottawa
45.502648,-73.663913,24,28,0,Duncan
45.539928,-73.540388,30,22,0,Hochelaga
46.0419,-72.66,41,11,0,Zéphirin
46.11,-64.79,47,5,0,MONCTON
45.6819,-62.6953,47,5,0,PICTOU
45.61394,-61.36235,34,18,0,PORT HAWKESBURY
45.2636264736602,1.76388697613289,20,4,0,FR35023
44.9200896648358,2.44108195306639,34,7,0,FR07052
45.291202777241,13.7497777777778,29,20,0,HR0015A
45.1594722216854,17.9951,45,7,0,HR0010A
44.9079,82.0485,28,24,0,博乐市西郊区
44.8969,82.0806,27,25,0,市环保局
45.305,130.9817,15,37,0,自来水公司　
45.2948,131.0103,23,25,0,白酒厂　
45.2978,130.9298,9,43,0,气象局　
44.890197,-116.1065,28,24,0,McCall
45.178699,-113.892998,43,9,0,Salmon PM2.5
44.657014,-111.089618,49,3,0,West Yellowstone Par
45.366151,-106.48982,41,11,0,Birney
44.89965,-97.128802,43,7,0,Watertown
44.789398,-93.512497,48,4,0,Shakopee
45.2108,-93.6686,48,4,0,St. Michael
45.1425,-93.2139,40,11,0,Blaine
44.7383,-93.2372,46,6,0,Apple Valley
44.706123,-93.285803,42,10,0,Lakeville - Near Roa
44.9653,-93.2551,42,10,0,Minneapolis-Near Roa
44.9536,-93.2581,40,12,0,Minneapolis-Phillips
44.9594,-93.0356,44,8,0,St. Paul-Harding H.S
44.761398,-91.413002,43,9,0,Eau Claire
45.2039,-90.6,45,7,0,PERKINSTOWN
45.0294,-74.7394,45,7,0,Cornwall
44.9636,-67.060799,36,0,0,Sipayik-ME
45.3092,-66.0092,47,5,0,FOREST HILLS
45.2536,-66.0803,47,5,0,SAINT JOHN WEST
45.0061,-65,43,9,0,AYLESFORD MOUNTAIN
45.04,-64.29,32,20,0,KENTVILLE
44.7197,-63.4819,38,14,0,Lake Major
44.0535311975936,4.69736248588371,40,12,0,FR08252
44.5552221289565,6.07306047829002,24,28,0,FR24033
44.5486285541342,6.06730227731882,29,23,0,FR24038
44.54083333333333,18.673333333333336,48,2,0,Skver
44.52361111111111,18.60027777777778,33,2,0,Bukinje
44.53330277777778,18.534891666666667,52,0,0,Lukavac
43.895,81.2867,28,24,0,新政府片区
43.941,81.3364,26,26,0,第二水厂
44.3336,84.8983,35,17,0,独山子区
44.2967,86.0497,22,30,0,艾青诗歌馆
44.3075,86.0697,21,31,0,阳光学校
44.0114,87.2997,23,29,0,州监测站
44.0297,87.2717,26,26,0,新区政务中心
43.9469,87.4754,31,21,0,新疆农科院农场
43.962,87.6444,32,20,0,米东区环保局
44.1756,87.5475,38,14,0,农水大厦
43.9317,116.1042,38,14,0,市环保监测站
44.561,129.61,33,19,0,环保大楼　
44.5782,129.6115,31,21,0,文化广场　
44.5952,129.5902,29,23,0,第一医院
44.6104,129.6459,37,15,0,机车工厂
44.5462,129.6386,25,27,0,第一中学
44.067223,-123.14135,21,31,0,Eugene - Highway 99
44.0263,-123.08377,15,37,0,Eugene - Amazon Park
44.046683,-123.017736,15,37,0,Springfield City Hal
44.1158,-123.12107,17,35,0,Eugene - Wilkes Dr.
44.104498,-115.972386,27,25,0,Garden Valley
44.373786,-100.287269,48,4,0,Pierre
44.348604,-96.807299,48,4,0,Research Farm
44.4572,-95.835,49,3,0,Marshall
43.9947,-92.4497,48,4,0,Rochester
44.3069,-88.3956,44,8,0,APPLETON AAL
44.5167,-87.9939,43,9,0,GREEN BAY E HIGH
44.3106,-84.891899,44,8,0,HOUGHTON LAKE
44.1503,-77.3956,47,5,0,Belleville
44.3647,-73.9017,33,1,0,Whiteface Mtn
44.5514,-70.5463,44,3,0,Rumford
44.377048,-68.260902,42,8,0,Acadia NP - McFarlan
43.587192917729,1.44388910562383,34,18,0,FR12030
43.6430597871857,1.46764954488879,35,16,0,FR12054
43.2763488363056,5.3976711150776,22,30,0,FR03006
43.5302972250095,5.44138313680286,31,21,0,FR03029
43.453461514164,5.4671019033872,27,25,0,FR03030
43.3060996358468,5.39579363613379,27,25,0,FR03043
43.1310479441995,5.92423658516994,23,29,0,FR03071
43.856667,18.398205,51,1,0,US Diplomatic Post: Sarajevo
43.8303,87.5801,18,34,0,监测站
43.768,87.6046,18,34,0,收费所
43.8711,87.5525,18,34,0,铁路局
43.831,87.6432,16,36,0,三十一中学
43.8167,125.25,39,13,0,高新区管委会
43.74436,-122.480506,23,29,0,Oakridge - Willamett
43.823017,-115.838557,35,17,0,Idaho City
43.4683,-112.053101,20,32,0,Idaho Falls / Penfor
43.557613,-103.483658,46,6,0,WIND CAVE
43.746944,-101.941109,49,3,0,Badlands
43.54792,-96.700768,49,3,0,Sioux Falls
43.7781,-91.225,47,5,0,LACROSSE DOT
43.4356,-89.6803,49,3,0,Devils Lake
43.46611,-88.621109,40,12,0,Horicon Wildlife Are
43.4981,-87.81,39,13,0,HARRINGTON BCH
43.608528,-72.98246,49,3,0,RUTLAND
43.629605,-72.309499,52,0,0,Lebanon
43.660248,-70.268967,34,18,0,Portland - Deering O
43.294116999464,-5.679632,38,12,0,ES1353A
43.306656999464,-5.689716,39,8,0,ES0825A
43.3665299994639,-5.83303,40,10,0,ES1269A
43.4015009994639,-5.80287,39,8,0,ES2051A
43.4702185970344,-1.55384289640006,34,18,0,FR31043
42.422058,12.109125,52,0,0,Viterbo
42.736649,11.876578,52,0,0,Acquapendente
42.404093,12.858224,52,0,0,Rieti 1
42.572593,12.961982,52,0,0,Leonessa
42.6446972216871,18.1226111111111,47,4,0,HR0020A
42.661995,21.15055,42,10,0,US Diplomatic Post: Pristina
42.9409,89.191,20,32,0,市环保局
42.9559,89.1673,19,33,0,地区环保局
42.8172,93.5128,8,43,0,地区监测站
42.8328,93.4961,8,44,0,哈密师范学校
42.565089,-114.494717,29,23,0,Twin Falls PM25
42.876701,-112.460297,41,11,0,Pocatello Garrett an
42.8698,-109.8708,41,11,0,Pinedale Gaseous
42.751518,-96.707208,46,2,0,UC1
43.123299,-94.693298,48,4,0,Emmetsburg, ILCC
42.5014,-92.315804,47,5,0,Waterloo, Water Towe
42.692131,-90.696373,47,5,0,Potosi
43.1008,-89.3572,38,14,0,MADISON EAST
43.0203,-88.215,31,21,0,WAUKESHA - CLEVELAND
42.5047,-87.8111,38,14,0,CHIWAUKEE
43.0178,-87.9333,39,13,0,MILWAUKEE 16TH ST
43.0611,-87.9125,33,19,0,MILWAUKEE SER DNR
42.93257,-87.93434,37,14,0,MILWAUKEE COLLEGE AV
42.930569,-87.932106,34,5,0,Milwaukee College Av
42.76138,-84.562867,46,6,0,LANSING FILLEY ST
43.0994,-75.225,30,4,0,Utica
42.6425,-73.7547,29,5,0,Albany
42.453035,-73.238776,49,3,0,PittsfieldES
42.605816,-72.596689,47,5,0,Greenfield
42.930521,-72.272332,47,5,0,Keene
42.86183,-71.878626,52,0,0,Miller State Park
43.075371,-70.748017,41,11,0,Portsmouth
42.2360870106484,9.19003485112794,44,8,0,FR41024
42.102158,11.784358,52,0,0,Fiumaretta
42.098903,11.817692,52,0,0,Faro
42.081825,11.809336,52,0,0,Campo dell'Oro
42.160972,11.900022,52,0,0,Allumiere - v.Aldo Moro
41.889438,12.2663,52,0,0,Castel di Guido
41.874894,12.345598,52,0,0,Malagrotta
41.768189,12.237048,52,0,0,Fiumicino Villa Guglielmi
41.947447,12.469588,52,0,0,Francia
41.85772,12.568665,52,0,0,Cinecitta
41.72501,13.009575,52,0,0,Colleferro-Europa
41.995679,12.726371,52,0,0,Guidonia
41.932874,12.506971,52,0,0,Villa Ada
41.929383,12.658363,52,0,0,Cavaliere
41.906358,12.447596,52,0,0,Cipro
41.89402,12.475368,52,0,0,Arenula
41.69,13.250411,52,0,0,Ferentino
41.67,13.674472,51,0,0,Fontechiari
41.639666,13.348913,52,0,0,Frosinone Mazzini
41.991999999466,21.423,41,2,0,MK0047A
42.0059999994659,21.387,46,4,0,MK0048A
41.7511,86.1461,15,37,0,孔雀公园
41.7192,86.2022,20,32,0,棉纺厂
41.7128,86.2381,15,37,0,经济开发区
41.7156,125.9361,31,21,0,光明
41.7381,125.9486,27,25,0,铁路
41.9206,126.4047,9,43,0,喜丰
41.9419,126.4078,11,41,0,环保局
41.72679,-122.63359,28,24,0,Yreka
42.082222,-111.864167,42,10,0,Preston PM25 BAM
41.842778,-111.85194,37,15,0,Smithfield
41.9767,-91.6878,48,4,0,PUBLIC HEALTH
41.658195,-91.503471,45,7,0,Iowa City, Hoover Sc
42.267002,-89.08917,28,14,0,Rockford
42.2211,-88.2411,28,23,0,CARY
42.1406,-87.7994,38,13,0,NORTHBRK
41.995602,-83.946701,47,4,0,TECUMSEH
42.24,-83.5997,48,4,0,YPSILANTI
42.3231,-83.0689,2,0,0,DETROIT - W LAFAYETT
42.312158,-83.091943,43,9,0,DET POLICE 4TH
42.295824,-83.129431,45,7,0,TRINITY ST MARKS
42.1428,-80.0372,41,11,0,Erie
41.6447,-76.9392,47,5,0,Tioga County
41.705226,-76.512726,46,6,0,Towanda
41.833099,-73.303299,43,9,0,Cornwall
42.298302,-72.334396,45,7,0,WARE
42.263901,-71.794701,27,25,0,Worcester
42.329399,-71.082497,33,19,0,Boston - Roxbury
42.325197,-71.056056,32,20,0,Boston-Von Hillern
41.531431,12.946064,51,1,0,Latina-Scalo
41.49,13.83069,52,0,0,Cassino
41.3672,69.2725,53,9,0,US Diplomatic Post: Tashkent
41.1636,80.2828,24,28,0,电视台
41.1933,80.2956,21,31,0,艺术中心
40.916,107.5936,37,15,0,秋林养殖基地
41.0781,121.0986,22,30,0,南山
41.1222,121.1178,20,32,0,天安街道
41.5931,120.4439,14,38,0,西梁
41.5647,120.4247,19,33,0,八里堡
41.1219,121.2008,14,38,0,百股街道
41.492802,-112.0187,16,9,0,Brigham City
41.206402,-111.975197,16,7,0,Ogden #2
41.08536,-104.52277,38,14,0,Laramie County Mobil
41.2474,-95.9731,49,3,0,NCORE
41.133317,-95.956078,43,9,0,2912 Coffey
40.970001,-95.044998,47,5,0,Viking Lake State Pa
41.6031,-93.643303,51,1,0,CARPENTER
41.4014,-91.0684,50,2,0,Muscatine, High Scho
41.5144,-90.5172,44,7,0,ROCK_IS
41.529999,-90.587502,39,13,0,Davenport, 10th & Vi
41.2222,-88.1906,29,22,0,BRAIDWD
41.526885,-88.116474,29,22,0,Joliet
41.492191,-81.678552,42,9,0,G.T.Craig
41.4409,-81.4949,31,11,0,Cleveland Near Road
41.063526,-81.468956,34,18,0,East High School
41.0604,-81.9239,41,11,0,Chippewa Lake
41.4428,-75.6231,44,8,0,Scranton
41.615,-71.7197,47,5,0,W Greenwich
41.4942,-71.4219,45,7,0,Narragansett
41.1475,-8.658889,38,8,0,PT01050
40.7608,107.4211,47,5,0,附中
40.7579,111.651,39,13,0,呼市一监
40.8033,111.658,37,15,0,小召
40.8144,111.608,35,17,0,糖厂
40.8062,111.7277,37,15,0,二十九中
40.7866,111.551,37,15,0,工大金川校区
40.7612,111.717,36,16,0,化肥厂生活区
40.7514,120.8392,12,40,0,化工街
40.715,120.8478,17,35,0,新区
40.7736,120.8631,22,30,0,东城区
40.8333,121.045,16,36,0,开发区
40.7136,120.9092,18,34,0,龙港区
40.734722,-122.941109,23,22,0,Weaverville
40.600556,-112.355,41,11,0,Erda
40.598056,-111.894167,33,19,0,Copper View
40.733501,-111.871696,35,17,0,Hawthorne
40.7955,-111.9309,35,17,0,Rose Park
40.712064,-112.111122,22,10,0,MA
40.662841,-111.901796,5,0,0,NR
40.2943,-110.009,32,20,0,Roosvelt
40.464722,-109.56083,34,18,0,Vernal #4
40.4147,-104.7061,16,33,0,Greeley Hospital
40.812558,-96.675733,47,5,0,LLCHD BAM
40.693298,-92.006104,48,4,0,Lake Sugema
40.5169,-88.9975,41,10,0,NORMAL
40.6978,-89.5889,46,5,0,PEORIA_J
40.125557,-85.652222,44,7,0,Anderson-Eastside El
40.771,-84.0539,42,0,0,Lima
40.800797,-81.372853,7,6,0,Canton
40.747799,-80.316704,42,9,0,Beaver Falls
40.1469,-79.9033,41,11,0,Charleroi
40.4447,-80.42,45,7,0,Florence
40.366452,-80.615691,44,8,0,Steubenville
40.4656,-79.9611,45,7,0,Lawrenceville
40.8142,-79.565,47,5,0,Kittanning
40.323898,-79.868301,22,0,0,Liberty (SAHS)
40.437431,-79.863572,22,0,0,Parkway East (Near R
40.515,-78.3889,43,9,0,Altoona
40.3097,-78.9158,42,3,0,Johnstown
40.8114,-77.8769,45,7,0,State College
40.2464,-77.1867,47,5,0,Carlisle
40.33733,-76.383446,48,4,0,Lebanon
40.246992,-76.846988,46,6,0,Harrisburg
40.3833,-75.9686,42,10,0,Reading Airport
40.6119,-75.4325,39,13,0,Allentown
40.515251,-74.806755,36,16,0,Flemington
40.283092,-74.742645,43,9,0,Rider University
40.720989,-74.192894,35,17,0,Newark Firehouse
40.641441,-74.208366,25,27,0,Elizabeth Trailer
40.603943,-74.276176,38,14,0,Rahway PM
40.7375,-73.8244,26,8,0,Queens
39.5371,75.9828,31,21,0,巡警大队
39.4365,75.9435,27,25,0,市环境监测站
39.7153,76.1861,19,33,0,市人民政府
39.7711,98.2908,8,44,0,气象局
39.7294,98.5023,9,43,0,富康家世界子站
39.79777778,98.26722222,8,44,0,酒钢宾馆
39.746,98.509,9,43,0,仓门街子站
40.0917,113.3444,24,28,0,大同大学
39.95,116.47,46,6,0,Beijing US Embassy
39.8673,116.366,45,7,0,万寿西宫
39.9522,116.434,44,8,0,东四
39.8745,116.434,45,7,0,天坛
39.9716,116.473,44,8,0,农展馆
39.9425,116.361,45,7,0,官园
39.9279,116.225,43,9,0,古城
40.0031,116.407,47,4,0,奥体中心
39.9934,116.315,48,4,0,海淀区万柳
40.0181,119.7624,8,44,0,第一关
39.411743,-123.352661,27,25,0,Willits Justice Cent
40.086941,-108.761002,37,15,0,Rangely, CO
39.828387,-104.938463,18,34,0,Adams
39.785622,-104.988469,20,32,0,Globeville
39.8669,-88.9256,47,0,0,DECATUR
40.052241,-88.372549,34,1,0,BONDVILLE
39.7889,-86.2147,44,7,0,Indpls-W.18th St
39.787933,-86.13088,45,6,0,Indpls - I-70 E
39.92882,-83.80949,44,8,0,Springfield PM
39.80834,-83.88711,1,0,0,Yellow Springs
39.758235,-84.197375,39,5,0,Dayton - Sinclair
40.11109,-83.065376,46,6,0,Columbus NR - Smoky
39.82,-80.2897,41,11,0,Holbrook
39.917663,-79.805499,45,6,0,Uniontown
39.9653,-76.6994,47,5,0,York
39.462002,-76.631599,51,1,0,Padonia
39.41,-76.2967,49,3,0,Edgewood
39.818715,-75.413973,41,11,0,Marcus Hook
39.5511,-75.7308,35,12,0,LUMS 2
39.595001,-75.611,41,11,0,Rte 9 Del. City
39.701099,-75.860001,45,7,0,Fair Hill
39.8356,-75.3725,33,19,0,Chester
40.1122,-75.3092,32,20,0,Norristown
39.922516,-75.186783,24,24,0,RIT
39.9603,-75.1424,34,18,0,FAB
39.422272,-75.0252,33,19,0,Millville
39.46487,-74.448738,34,18,0,Brigantine
39.8680599994715,-4.02083,49,1,0,ES1818A
39.5586111094725,-1.28138888,47,3,0,ES1670A
38.9467,100.4686,5,47,0,监测站
38.9389,100.4497,6,46,0,科委
38.843,105.6975,33,19,0,盟环保楼
38.817,106.3394,29,23,0,沙湖旅游区
39.0153,106.3717,30,22,0,大武口黄河东街
39.1292,106.7096,30,22,0,红果子镇惠新街
39.3265,112.4078,11,41,0,市环保局
38.9846,117.3747,51,2,0,津沽路
39.0845,117.1589,51,2,0,宾水西道
39.1067,117.1941,44,9,0,大理道
39.16969,117.2099,48,5,0,中山北路
39.1654,117.145,43,9,0,勤俭道
39.1082,117.237,47,5,0,大直沽八号路
39.0927,117.202,49,3,0,前进道
39.2133,117.1837,46,7,0, 淮河道
39.0877,117.307,49,3,0,跃进路
38.9194,117.157,47,6,0,团泊洼
38.951111111,121.565,17,35,0,周水子
39.1311,121.7481,23,29,0,金州
38.91661,-122.6084,2,0,0,EBAM6 - Konocti Elem
39.1389,-121.6175,6,10,0,Yuba City
39.3386,-120.170303,18,34,0,Truckee BAM
39.063599,-108.561096,31,10,0,Grand Junction - Pow
38.8763,-107.6022,37,15,0,Paonia
38.7703,-99.7636,44,8,0,Cedar Bluff
39.047911,-94.450513,37,15,0,Blue Ridge I-70
39.1175,-94.6356,38,5,0,WY/KC
38.7045,-90.1397,41,9,0,GC_MAD
39.0217,-84.4744,41,11,0,NKU
39.12886,-84.50404,32,20,0,Taft
39.146025,-84.538375,38,14,0,Cincinnati Near Road
39.2787,-84.36612,39,13,0,Sycamore
38.79471,-83.533988,46,4,0,West Union
39.114399,-77.106903,44,8,0,Rockville
39.055302,-76.878304,43,9,0,HU-Beltsville
38.771702,-77.108902,44,8,0,FRANCONIA
38.895683,-76.958089,39,12,0,RIVER_Terrace
38.894749,-76.953427,36,16,0,DCNearRoad
39.143197,-76.846192,38,14,0,Howard County Near R
39.2981,-76.604698,33,19,0,Oldtown
38.9847,-75.5556,27,25,0,KILLENS
39.305199,-75.797203,40,12,0,Millington
39.278333,-9.245556,45,5,0,PT03102
38.635556,-8.690556,47,5,0,PT03099
38.768889,-9.108056,45,5,0,PT03071
38.785,-9.347222,47,5,0,PT03089
38.663611,-9.157778,46,5,0,PT03083
38.748611,-9.148889,46,5,0,PT03072
39.3525,-8.466111,48,4,0,PT03096
38.6806499994758,-4.10832,50,1,0,ES1277A
37.9311,102.6219,17,35,0,监测站
37.9358,102.6469,4,2,0,雷台
38.49494,106.1024,25,27,0,文昌北街
38.4975,106.2328,37,15,0,贺兰山东路
37.9648,106.1532,37,15,0,教育园区
37.9844,106.2025,37,15,0,高级中学
38.44139,106.2275,34,18,0,水乡路(直管站)
38.4841,106.2739,36,16,0,上海东路
37.9723,106.196,37,15,0,新区二泵站
38.5036,106.1358,38,14,0,学院路
38.2911,109.7456,35,17,0,世纪广场
38.2839,109.7289,38,14,0,实验中学
38.2478,109.7336,36,16,0,环保监测大楼
38.3344,109.7414,35,17,0,红石峡森林公园(对照点)
38.2991,116.8854,45,7,0,沧县城建局
38.2183,-121.77,19,30,0,Rio Vista
38.613804,-121.368007,19,33,0,Arden Arcade - Del P
38.494475,-121.211131,27,25,0,Sloughhouse
38.56844,-121.49311,18,34,0,Downtown Sacramento
37.9508,-121.2675,12,4,0,Stockton - Hazelton
38.2019,-120.680603,11,5,0,San Andreas
38.611893,-90.160614,28,12,0,East St. Louis
38.0608,-85.8961,38,14,0,WATSON
38.2286,-85.6544,33,19,0,Cannons Lane
38.23158,-85.82675,34,18,0,Firearms Training
38.508114,-82.659301,39,13,0,Ironton - ODOT
38.5231,-78.4347,45,7,0,Shenandoah NP
38.5876,-76.1408,36,16,0,Horn Point
38.605,-28.631389,42,10,0,PT07001
38.02,-8.6975,29,23,0,PT04004
38.076944,-8.798611,47,4,0,PT04002
38.615,-7.3975,41,11,0,PT04006
37.3753,97.3731,10,42,0,德令哈市
37.5002,105.1971,13,39,0,环保局站
37.5136,111.1297,21,31,0,自来水公司
37.51,111.1283333,19,33,0,马茂庄小学
37.4489,116.3189,43,9,0,监理站
37.2817,-120.433601,9,43,0,Merced - S. Coffee A
37.4883,-120.8358,16,36,0,Turlock - S. Minaret
37.645718,-118.966515,9,43,0,Mammoth Lakes
37.7486,-119.5869,4,12,0,Yosemite Village - V
37.7011,-97.3139,34,18,0,WHlthDpt
37.70097,-94.03474,38,14,0,ELDOSPGS
37.256069,-93.299692,36,16,0,Hillcrest HS
37.8714,-87.4633,4,5,0,BASKETT
37.4828,-82.5353,40,12,0,PIKE2001
37.285599,-79.884201,43,9,0,EAST VINTON ELEMENTA
37.55652,-77.40027,27,10,0,MATH & SCIENCE CTR
37.3125,-7.678611,40,12,0,PT05012
37.1152,79.9485,22,30,0,地区站
37.1013,79.9117,17,35,0,古江巴格乡院内
36.6275,109.4131,28,24,0,枣园
36.61763,114.5129,47,5,0,环保局
36.6164,114.5426,49,3,0,东污水处理厂
36.5776,114.5035,47,5,0,矿院
36.61981,114.4965,47,5,0,丛台公园
37.0533,114.5261,45,5,0,邢师高专
37.0964,114.5331,48,4,0,路桥公司
37.062,114.4854,47,5,0,市环保局
37.0967,114.4821,46,6,0,达活泉
36.4796,115.9835,8,0,0,党校
36.4343,116.0072,52,0,0,聊大东校
36.4372,115.9848,52,0,0,区政府
36.6114,116.988,52,0,0,科干所
36.67,116.93,52,0,0,农科所
36.6872,116.989,52,0,0,济南化工厂
36.6868,117.0684,52,0,0,省种子仓库
36.6489,116.943,52,0,0,机床二厂
36.6622,117.049,52,0,0,市监测站
36.5336,116.734,52,0,0,长清党校
36.6739,117.114,50,0,0,开发区
36.8088,118.0482,51,1,0,人民公园
36.838,118.0448,51,1,0,东风化工厂
36.71,117.541,103,1,0,环境监测站
36.8041,117.8512,51,1,0,三金集团
37.0481,-122.074603,6,27,0,Felton Cal-Fire
36.9533,-120.0341,8,33,0,Madera-City
36.785378,-119.773206,4,12,0,Fresno - Garland
36.819199,-119.7164,9,28,0,Clovis - N. Villa Av
36.6972,-119.0189,10,25,0,Pinehurst
36.4878,-117.871,27,25,0,Keeler
36.3833,-105.5833,38,14,0,Taos Fire Station
36.697189,-97.081278,31,21,0,Ponca City
36.918242,-95.632127,28,24,0,Union
36.922222,-94.83889,27,15,0,Miami
37.0581,-88.5725,34,18,0,JPRECC
36.5144,-87.3278,6,8,0,Clarksville
36.5408,-82.5217,49,3,0,Kingsport
37.103683,-76.386948,36,16,0,HAMPTON
37.015,-7.926667,48,4,0,PT05007
36.0714,111.5028,12,40,0,技工学校
36.0417,111.4917,8,44,0,尧庙镇
36.10139,111.505,16,36,0,唐尧大酒店(启用161122)
36.0822,111.5169,13,39,0,工商学校
36.061,114.483,52,0,0,棉研所
35.7672,115.0628,51,1,0,油田运输公司
35.767,115.0772,51,1,0,油田物探公司
35.76806,115.0061,51,1,0,濮水河管理处
36.0878,114.3922,51,1,0,信访局
36.1942,117.1436,52,0,0,监测站
36.1942,117.0881,52,0,0,人口学校
36.1758,117.1081,52,0,0,电力学校
36.2289,117.6789,52,0,0,技术学院
36.2092,117.7181,52,0,0,泰兴公司
36.2211,117.6983,51,1,0,莱芜战役纪念馆
36.283,120.008,1,0,0,胶州环保局
36.0319,-119.055,18,32,0,Porterville-NFS
36.3322,-119.2903,3,13,0,Visalia - N. Church
35.755,-118.4175,12,24,0,Kernville
35.785665,-115.357087,33,19,0,Jean
36.139707,-115.175654,32,20,0,RT
36.141875,-115.078742,33,19,0,Jerome Mack
36.163962,-115.11393,36,16,0,Sunrise Acres
36.1589,-98.9353,38,14,0,Seiling
35.9525,-96.0033,35,17,0,Glenpool
36.206699,-95.976402,35,17,0,Tulsa
35.750599,-94.669701,38,14,0,STILWELL CASTNET & N
36.1797,-94.1167,35,17,0,SPRNGDLE
35.6567,-88.8092,9,4,0,Jackson
35.65188,-87.0096,45,7,0,Columbia
36.2975,-86.6525,41,11,0,HVILLE
36.1857,-85.4921,37,15,0,Cookeville
35.9386,-84.5439,40,12,0,Harriman
35.7683,-83.9422,43,9,0,MARYVILL
35.7197,-84.3417,44,8,0,LOUDONMS
35.6322,-83.9422,42,10,0,Look Rock - GSMNP
35.912487,-82.062082,39,13,0,Spruce Pine
35.73,-81.37,22,10,0,HICKORY
36.1106,-80.2267,21,14,0,HATTIEAVEN
36.1092,-79.8011,26,5,0,MENDNHAL
35.889402,-78.8747,33,16,0,Burdens Creek
35.9919,-78.8964,24,8,0,Durham Armory
35.856098,-78.574203,20,12,0,Millbrook NCore
35.8652,-78.8197,19,16,0,Triple Oak - Near Ro
35.9889,-77.5867,23,9,0,LEGGETT
35.638599,-77.358002,7,6,0,PITTAGCT
35.259,113.1992,45,7,0,影视城(对照点)
35.31,113.836,51,1,0,环保西院
35.272,113.884,51,1,0,开发区
35.303,113.883,50,2,0,环保东院
35.248889,115.42277,51,1,0,市气象局
35.2375,115.474722,51,1,0,市政协
35.27,115.455,51,1,0,菏泽学院
35.4039,116.5546,52,0,0,电化厂
35.428,116.6305,52,0,0,火炬城
35.0992,117.4518,50,2,0,山亭区环保局
35.494556,-120.666203,13,39,0,Atascadero2
35.356667,-119.062778,1,15,0,Bakersfield - Califo
35.0186,-106.651901,27,25,0,South Valley
35.338407,-106.524292,27,20,0,MOBILE - SANTA ANA
35.6198,-106.0797,20,32,0,Santa Fe Airport
35.32,-97.4883,40,12,0,Moore
35.502968,-97.577674,41,11,0,Near Road OKC
35.612801,-97.472198,39,13,0,North OKC
34.906082,-95.794128,30,22,0,McAlester
35.1967,-90.1911,32,20,0,MARION
35.151588,-89.85022,36,14,0,SHELBY FARMS
35.1158,-87.47,2,0,0,LAWRENCE
35.4511,-84.5992,42,10,0,ATHENS
35.4356,-83.4436,21,9,0,BRYSON
35.6075,-82.5833,25,6,0,BDED
34.955601,-81.924797,33,19,0,TK Gregg
35.2411,-80.7831,26,19,0,GARINGER
35.1514,-80.8669,7,7,0,Montclaire
35.213171,-80.874084,34,18,0,Remount
34.91263,-80.874283,29,23,0,Catawba Indian Natio
35.2632,-79.8635,28,4,0,Candor FRO
35.041401,-78.953102,23,9,0,W OWEN SCH
35.5,-78.4375,20,12,0,JOHNSTON
34.4714,100.2561,44,8,0,玛沁县大武镇
34.3469,106.005,46,6,0,仙人崖
34.5653,105.8614,38,14,0,文化馆
34.3672,107.1906,23,29,0,三陆医院
34.3739,107.1186,27,25,0,技工学校
34.3528,107.3906,26,26,0,陈仓环保局
34.3497,107.2058,25,27,0,文理学院
34.3622,107.2386,21,30,0,三迪小学
34.802,113.564,51,1,0,供水公司
34.7496,113.5991,49,1,0,市监测站
34.7781,114.3389,52,0,0,肿瘤医院
34.7975,114.3733,12,0,0,妇幼保健院
34.7967,114.2886,52,0,0,世纪星幼儿园
34.8097,114.3442,53,0,0,龙亭公园
34.7545,113.681,32,0,0,烟厂
34.7745,113.641,52,0,0,郑纺机
34.8019,113.675,52,0,0,银行学校
34.7187,113.727,50,0,0,经开区管委
34.719,113.734,52,0,0,四十七中
34.7538,113.6356,52,0,0,河医大
34.4286,115.6697,53,0,0,环境监测站　
34.429,115.6558,53,0,0,粮食局　
34.407,115.6386,53,0,0,睢阳区环保局　
34.402,115.6578,8,0,0,第三人民医院　
34.7837,117.2852,52,0,0,薛城环保局
34.29,117.1814,52,0,0,鼓楼区政府
34.1781,117.1694,52,0,0,铜山区招生办
34.2761,117.167,52,0,0,黄河新村
34.2417,117.192,52,0,0,淮塔
34.2153,117.256,52,0,0,新城区
34.2911,117.244,52,0,0,桃园路
34.2778,117.2933,52,0,0,农科院
34.632999,-98.428802,38,14,0,Lawton North
34.256901,-97.474197,33,19,0,Healdton
34.6811,-92.3283,41,10,0,ADEQ-DSR
34.7561,-92.2758,40,12,0,PARR
34.820556,-89.987778,39,12,0,HERNANDO
34.5286,-86.9706,38,14,0,DECATUR
34.26054,-85.32333,25,13,0,Rome
34.805,-83.237503,36,13,0,Long Creek
34.843899,-82.414597,31,21,0,Greenville-ESC
34.615299,-80.198898,37,11,0,Chesterfield
34.2143,-79.7673,32,20,0,Williams Middle Scho
34.3561,-77.8617,24,8,0,CASTLE H
33.721,113.322,45,7,0,新华旅馆
34.0117,113.8331,45,7,0,监测站
33.9953,113.7906,47,5,0,开发区
33.567,114.056,47,5,0,三五一五工厂
33.568,114.005,47,5,0,漯河大学
33.581,114.014,47,5,0,水利局
33.5653,114.0322,47,5,0,广电局
34.0339,113.8172,46,6,0,市一中
33.6128,114.6613,50,2,0,市环境监测站
33.6347,114.6758,50,2,0,周口师范
33.5979,114.6546,50,2,0,市运管处
33.6406,114.6369,50,2,0,川汇区环保局
33.8399,115.8067,52,0,0,污水处理厂
33.8561,115.7831,52,0,0,三国揽胜宫
33.8997,116.8067,52,0,0,烈山区政府
33.9461,116.7844,52,0,0,职业技术学院
33.6284,116.9677,52,0,0,一中
33.63063889,116.989,52,0,0,火车站
33.666,116.951,52,0,0,远航博物馆(181204启用)
33.4105,-111.8651,32,20,0,Mesa - Brooks Reserv
33.560299,-112.066299,26,26,0,North Phoenix
33.4033,-112.0731,28,24,0,South Phoenix
33.4124,-111.9347,30,22,0,Tempe
33.3961,-111.968,23,29,0,Diablo
33.4265,-112.1181,17,35,0,Durango Complex
33.750833,-90.734167,38,14,0,CLEVELAND
33.3864,-86.8167,1,0,0,HOOVER
33.6906,-84.2731,34,18,0,South DeKalb
33.4347,-84.1617,30,22,0,McDonough
33.7397,-81.8536,30,22,0,Trenton
34.093899,-80.962196,32,20,0,Parklane
33.0014,97,43,9,0,玉树县结古镇
33.0706,107.0154,26,26,0,市监测站
33.1138,107.0089,20,32,0,鑫源开发区
33.0323,107.007,20,32,0,南郑大河坎水厂
32.965,114.018,47,5,0,市一纸厂　
33.0069,114.0131,48,4,0,市彩印厂　
32.8928,115.8275,52,0,0,市监测站
32.8603,115.8556,52,0,0,开发区
32.789561,-116.944222,6,46,0,El Cajon - Lexington
32.7917,-115.5617,30,14,0,El Centro - 9th Stre
32.6336,-115.5042,50,1,0,Colegio de Bachiller
32.676102,-115.483299,10,6,0,Calexico - Ethel Str
32.7267,-103.1233,25,27,0,Hobbs Jefferson
32.6706,-94.1681,30,22,0,Karnack C85
33.215,-92.6689,23,5,0,El Dorado
33.007801,-80.964996,6,4,0,Ashton
32.941002,-79.656998,28,23,0,Cape Romain
32.649722,-16.918333,44,8,0,PT06005
32.807778,-16.886389,49,3,0,PT06008
32.648889,-16.883056,40,12,0,PT06004
32.5,80.1161,38,14,0,阿里监测站
31.9286,102.1755,48,4,0,州农科所
31.9025,102.2218,49,3,0,州监测站
31.8934,102.2402,45,7,0,马师校
32.3153,118.3094,52,0,0,老年大学
32.2786,118.3244,52,0,0,人大宾馆
32.3061,118.3158,10,0,0,监测站
32.1083,118.803,52,0,0,迈皋桥
32.0572,118.749,52,0,0,草场门
32.0723,118.778,52,0,0,山西路
32.0144,118.777,52,0,0,中华门
32.0314,118.803,52,0,0,瑞金路
32.0775,118.795,52,0,0,玄武湖
32.0878,118.626,52,0,0,浦口
32.0092,118.737,52,0,0,奥体中心
31.955,119.146,52,0,0,消防指挥中心
31.955,119.18,52,0,0,房家坝
32.41361,119.458,52,0,0,五台山医院(启用161107)
32.18888889,119.4369444,52,0,0,市疾控中心
32.3942,119.4686,52,0,0,广陵建设局(启用180626)
32.3972,119.3633,52,0,0,市体育局（181219启用）
32.105,118.907,52,0,0,仙林大学城
32.3761,119.389,52,0,0,邗江监测站
32.215,119.491,52,0,0,职教中心
32.1319,119.43,52,0,0,丹徒区监测站
31.92,120.268,49,3,0,虹桥邮政
32.579361,-116.929486,30,21,0,Otay Mesa - Donovan
32.2953,-110.9822,42,10,0,Children's Park Site
32.482081,-97.026922,35,17,0,Midlothian OFW C52
32.0319,-96.3992,42,10,0,Corsicana C1051
32.565,-96.3175,33,19,0,Kaufman C71
32.5364,-93.7492,37,10,0,Shreveport Airport
32.346905,-90.225928,42,10,0,Hinds CC
32.329111,-90.182722,30,22,0,Jackson NCORE
32.36253,-88.27792,39,13,0,Ward
32.4069,-86.2564,32,20,0,MONTG
31.62,74.876512,26,6,0,Golden Temple, Amritsar - PPCB
31.321907,75.578914,10,22,0,Civil Line, Jalandhar - PPCB
31.4846,92.0657,52,0,0,那曲监测站
31.4797,92.0506,48,4,0,那曲会议中心
31.1254,97.1809,49,3,0,昌都地区昌都坝
31.1278,97.1804,47,5,0,昌都监测站
31.7275,113.3583,33,19,0,市委党校
31.6908,113.3833,33,19,0,市林业局
31.7308,113.3983,33,19,0,市立交桥水厂
31.4189,118.37,49,3,0,科创中心
31.3178,118.3708,31,2,0,四水厂
31.3839,118.4022,50,2,0,五七二零厂
31.6861,118.5058,52,0,0,湖东路四小
31.6411,118.4828,50,2,0,天平服装
31.7506,118.5106,50,2,0,慈湖二小
31.6928,118.48,49,1,0,马钢动力厂
31.7133,118.6439,49,3,0,市教育基地
31.751,119.579,51,1,0,金坛市环境监测站
31.737,119.579,51,1,0,金坛市自来水公司
31.4,119.46,52,0,0,溧阳市东门子站
31.317,119.438,51,1,0,燕山子站
31.354,119.818,52,0,0,宜兴市环保局
31.371,119.794,52,0,0,宜园
31.8108,119.9736,53,0,0,行政中心
31.7694,120.0469,52,1,0,经开区
31.7897,119.8914,53,0,0,钟楼
31.4867,120.269,52,0,0,雪浪
31.6219,120.275,52,0,0,黄巷
31.56,120.294,52,0,0,曹张
31.5031,120.242,52,0,0,漆塘
31.5848,120.354,52,0,0,东亭
31.5475,120.354,52,0,0,旺庄
31.5631,120.245,52,0,0,荣巷
31.6842,120.288,52,0,0,堰桥
31.7586,119.996,52,0,0,市监测站
31.7039,119.935,52,0,0,武进监测站
31.388,120.953,48,4,0,昆山实验小学
31.337204,-110.936722,37,15,0,Nogales Post Office
31.7467,-106.402802,13,39,0,Ascarate Park Southe
31.6531,-97.0706,42,10,0,Waco C1037
31.322779,-89.287498,34,18,0,Hattiesburg
30.9028,75.8086,31,1,0,Punjab Agricultural University, Ludhiana - PPCB
30.7057778,76.8531805555555,11,18,0,Sector-6, Panchkula - HSPCB 
31.0325454,76.5623046,13,19,0,Ratanpura, Rupnagar - PPCB
30.736056,76.209694,18,14,0,Kalal Majra, Khanna - PPCB
30.649961,76.331442,13,19,0,RIMT University, Mandi Gobindgarh - PPCB
30.7819,111.3296,3,49,0,夷陵区
30.698,111.2992,2,50,0,白龙岗
30.9075,113.942,50,2,0,东城区
30.9285,113.9153,50,2,0,文化路
30.5719,114.3672,51,1,0,东湖梨园
30.5514,114.2511,52,0,0,汉阳月湖
30.6197,114.2836,51,1,0,汉口花桥
30.5494,114.3006,48,4,0,武昌紫阳
30.4753,114.1525,49,3,0,沌口新区
30.5947,114.3008,51,1,0,汉口江滩
30.6414,114.2131,50,2,0,吴家山
30.3944,114.8878,45,7,0,市政府
30.4133,114.8131,45,7,0,凡口开发区
30.4742,114.9028,48,4,0,职工中心
30.4519,114.8858,45,7,0,红卫路
30.4908,114.3877,43,9,0,民族大道182号
30.6103,114.4272,26,26,0,青山钢花
30.9414,117.7806,28,24,0,市新民污水厂
30.8811,117.7442,19,33,0,市第九中学
30.6617,117.4697,33,19,0,池州学院
30.6539,117.4974,30,23,0,平天湖
30.89556,120.0875,52,0,0,仁皇山新区
30.8596,120.1844,51,1,0,吴兴区站
30.4183,120.301,51,1,0,临平镇
30.8244,120.07,52,0,0,城西水厂
31.0935,120.978,52,0,0,青浦淀山湖
30.7946,120.744,52,0,0,清河小学
30.7478,120.726,52,0,0,嘉兴学院
30.7525,120.7844444,52,0,0,南湖区残联
30.4293,-90.1997,32,17,0,Madisonville
30.4397,-84.3483,26,26,0,Tallahassee Communit
30.4264,-82.7947,32,19,0,White Springs
30.4758,-81.5869,18,34,0,Sheffield Elementary
30.233011,74.907758,30,2,0,Hardev Nagar, Bathinda - PPCB
30.349388,76.366642,11,18,0,Model Town, Patiala - PPCB
29.6747,91.1221,43,9,0,市环保局
29.6376,94.3681,31,21,0,林芝监测站
29.6632,94.3616,19,33,0,林芝人民医院
30.3175,112.2551,52,0,0,市图书馆
30.3515,112.2068,51,1,0,市委党校
30.3122,112.2747,51,1,0,管委会(启用181220)
29.8181,114.3036,47,5,0,森林公园
29.8211,114.3231,43,9,0,市发改委
29.8539,114.2894,47,5,0,咸安区政府
29.8686,114.3372,45,7,0,长江产业园
29.7128,118.3057,37,15,0,延安路89号
29.7207,118.3236,35,17,0,黄山东路89号
30.2756,118.1371,40,12,0,黄山区政府5号楼
30.2311,119.6942,24,20,0,四中
29.719,120.251,16,22,0,图书馆
30.3542,-97.760002,40,12,0,Austin Northwest C3
29.9011,-95.3261,6,12,0,Houston Aldine C8
30.2625,-93.285,19,30,0,Westlake
30.1358,-81.6339,16,19,0,Mandarin
30.262808,-81.606834,27,25,0,Pepsi Place
29.2718,88.8876,32,20,0,日喀则监测站
29.2365,88.8931,32,20,0,日喀则鸿达公司
29.0289,111.7153,21,31,0,武陵区永安(启用171130)
29.3678,113.1772,51,1,0,开发区
29.5867,115.9936,47,5,0,庐山气象台(对照点)
29.3864,117.3097,48,4,0,王岗中学
29.2958,117.2111,44,8,0,老干部活动中心
29.2786,117.1983,46,6,0,兽医站
29.2647,117.1558,41,11,0,台达陶瓷
29.2956,117.2461,45,7,0,陶研所
28.9404,118.871,29,23,0,环保大楼
28.9664,118.871,37,15,0,实验学校
28.9745,118.855,37,15,0,衢州学院
29.305,120.091,8,39,0,江东
29.334,120.04,9,38,0,北苑
29.332803,-98.551396,34,17,0,San Antonio Palo Alt
29.423933,-98.580505,34,18,0,San Antonio Old Hwy9
29.170799,-82.1008,30,22,0,YMCA - Marion County
28.9678699995441,-13.555856,41,8,0,ES1955A
28.699793,77.165453,7,22,0,Wazirpur, Delhi - DPCC
28.7256504,77.2011573,12,11,0,Burari Crossing, Delhi - IMD
28.825341,78.7213009,13,15,0,Lajpat Nagar, Moradabad - UPPCB
28.6428,112.4067,49,3,0,甘溪港
28.7442,115.813,46,6,0,林科所
28.6869,115.852,47,5,0,建工学校
28.7994,115.742,51,1,0,武术学校
28.6064,115.9083,35,17,0,机电学校
28.6844,115.893,36,16,0,省外办
28.6839,115.8886,40,12,0,省林业公司
28.6969,115.973,42,10,0,京东镇政府
28.6425,115.892,44,8,0,象湖
28.6844,115.931,42,10,0,省站
28.2642,117.0564,20,32,0,新监测站
28.2403,117.0281,21,31,0,财苑宾馆
28.2264,117.0222,23,29,0,体育馆
28.2169,116.9983,19,33,0,三川水表
28.4514,119.914,28,24,0,监测站大楼
28.4586,119.93,32,20,0,莲都小学
28.6453959995473,-17.771554,42,5,0,ES1956A
28.4621729995492,-16.261895,43,6,0,ES1131A
28.4579539995493,-16.26333,41,5,0,ES2000A
28.4553749995493,-16.27675,2,0,0,ES2003A
28.3372199995505,-16.39972,39,10,0,ES1920A
28.4593139995492,-16.270206,42,7,0,ES2038A
27.8094,99.7136,32,20,0,质量技术监督局（20180930启用）
27.7569,111.9561,45,7,0,涟钢
27.7044,111.9892,49,3,0,市政府
27.725,111.9975,99,5,0,电视发射台
27.9164,112.4876,51,1,0,韶山
27.9647,116.385,12,40,0,医学分院
28.0903,-82.7008,23,29,0,John A. Chesnut Sr.
27.9659,-82.230617,31,14,0,SYDNEY
28.1112659995528,-15.520924,40,9,0,ES1952A
28.0036449995539,-15.411851,40,9,0,ES1919A
26.9164092,75.7994901,14,15,0,Police Commissionerate, Jaipur - RSPCB
26.902909,75.836853,21,8,0,Adarsh Nagar, Jaipur - RSPCB
26.9502929,75.730943,20,12,0,Shastri Nagar, Jaipur - RSPCB
27.19865833,78.00598056,20,9,0,Sanjay Palace, Agra - UPPCB
26.83399722,80.8917361,15,14,0,Talkatora District Industries Center, Lucknow - CPCB
26.871428,80.957145,15,5,0,Nishant Ganj, Lucknow - UPPCB
26.8821003,80.9302753,30,2,0,Central School, Lucknow - CPCB
26.8458805,80.9365541,21,8,0,Lalbagh, Lucknow - CPCB
27.3125,105.2864,33,19,0,八中
26.6761,118.0966,42,10,0,茫荡山
26.268249,73.0193853,15,14,0,Collectorate, Jodhpur - RSPCB
26.470859,74.646594,10,19,0,Civil Lines,  Ajmer - RSPCB
26.4703136,80.3229863,14,15,0,Nehru Nagar, Kanpur - UPPCB
26.1209,85.3647,14,11,0,Muzaffarpur Collectorate, Muzaffarpur - BSPCB
26.57098,101.68912,26,26,0,弄弄坪
26.585,101.7169,21,31,0,炳草岗
26.5017,101.7453,19,33,0,仁和
26.567,101.7227,23,29,0,四十中小
26.5892,104.8,37,15,0,窑上
26.5917,104.83,33,19,0,黄土坡
26.5939,104.89,28,24,0,水钢
26.5894,104.8475,40,12,0,民中
25.9118,114.9064,37,15,0,通天岩
25.25848,55.309166,23,29,0,US Diplomatic Post: Dubai
25.771061,73.340227,14,18,0,Indira Colony Vistar, Pali - RSPCB
25.14389,75.821256,13,19,0,Shrinath Puram, Kota - RSPCB
25.3505986,82.9083074,16,16,0,Ardhali Bazar, Varanasi - UPPCB
25.5941,85.1376,16,13,0,IGSC Planetarium Complex, Patna - BSPCB
25.8417,98.8546,15,37,0,泸水一中
25.5035,103.7897,39,13,0,环境监测站
25.5364,103.8,37,15,0,烟厂办公区
25.8664,114.9367,27,25,0,地委
25.8481,114.9461,25,27,0,气象台
25.8333,114.9322,24,28,0,市图书馆
25.8471,114.8905,22,30,0,华坚鞋城
24.5886166,73.6321397,21,8,0,Ashok Nagar, Udaipur - RSPCB
25.1081,99.1678,34,18,0,市环境监测站
25.0119,102.749,18,34,0,官渡区博物馆（180930启用）
24.8885,102.821,27,25,0,呈贡新区
24.9624,102.625,38,14,0,西山森林公园(对照点)
25.0836,102.728,26,26,0,龙泉镇
25.0405,102.722,33,19,0,东风东路
25.0359,102.638,28,24,0,碧鸡广场
25.067,102.681,27,25,0,金鼎山
24.77908333,113.6734722,2,50,0,韶关学院
24.5058,118.0936,18,34,0,湖里中学
24.445833333,118.06361111,24,28,0,鼓浪屿
24.9617,118.6108,15,37,0,清源山
23.685297,86.945968,19,10,0,Asansol Court Area, Asansol - WBPCB
23.8822,100.0869,37,15,0,市环保局
23.8982,100.0782,35,17,0,市气象局
24.3694,102.5778,30,22,0,东风水库
24.3702,102.5389,26,26,0,玉溪一中
24.339,102.5381,29,23,0,文体中心
24.3663,109.3957,17,35,0,市九中
24.3158,109.4839,22,30,0,古亭山
23.002657,72.591912,7,25,0,Maninagar, Ahmedabad - GPCB
23.331731,75.045981,26,5,0,Shasthri Nagar, Ratlam - IPCA Lab
23.182719,75.768218,27,5,0,Mahakaleshwar Temple, Ujjain - MPPCB
22.9682591,76.064118,28,4,0,Bhopal Chauraha, Dewas - MPPCB
23.10844,77.511428,29,3,0,Sector-D Industrial Area, Mandideep - MPPCB
23.3993,103.3772,21,31,0,污水处理厂
23.4168,103.386,25,27,0,监测站
23.3682,103.3758,19,33,0,州图书馆
23.1478,109.5681,26,26,0,德智高中
23.1036,109.5683,24,28,0,荷城子站
23.4792,111.2897,29,23,0,市环保
23.475,111.3178,41,11,0,云盖小学
23.415,111.2353,25,27,0,龙圩
23.4794,111.26,36,16,0,龙新
22.624758,75.675238,26,6,0,Sector-2 Industrial Area, Pithampur - MPPCB
22.7633,100.98,9,43,0,市环保局
22.4137,107.3476,15,37,0,市环保局江州分局
22.3708,107.3701,14,38,0,城南新区
22.7875,108.301,22,30,0,振宁花园
22.8561,108.316,18,34,0,北湖
22.8464,108.239,18,34,0,区农职院
22.735,108.328,19,33,0,英华嘉园
22.7833,108.244,18,34,0,沙井镇街道办
22.8225,108.321,23,29,0,市监测站
22.805,108.383,23,29,0,大自然花园
22.7906,108.439,21,31,0,仙葫
22.7019,110.1106,46,6,0,寒山水库
22.6411,110.1675,43,9,0,市监测站
22.6164,110.1433,40,12,0,南江一中
22.2294,113.495,4,48,0,前山
22.8054,113.292,2,50,0,顺德苏岗
22.6069,113.104,4,48,0,北街
22.5811,113.074,3,49,0,西区
22.5931,113.0819,4,49,0,东湖
22.5908,114.263,9,43,0,盐田
22.5978,114.297,9,43,0,梅沙
22.282777777777778,114.21944444444445,11,41,0,Eastern
22.313333333333333,114.22472222222223,5,47,0,Kwun Tong
22.330277777777777,114.15916666666668,10,42,0,Sham Shui Po
22.357222222222223,114.12972222222221,9,43,0,Kwai Chung
22.317777777777778,114.25944444444444,11,41,0,Tseung Kwan O
22.450833333333332,114.16444444444446,6,46,0,Tai Po
22.37638888888889,114.18444444444445,9,43,0,Sha Tin
22.47138888888889,114.36083333333333,10,42,0,Tap Mun
22.605386,120.307564,6,46,0,Qianzhen
22.733667,120.328289,4,48,0,Nanzi
22.757506,120.305689,8,44,0,Qiaotou
22.4795,120.41175,4,48,0,Linyuan
22.564136,120.425311,5,47,0,Daliao
21.8004996,83.8396977,30,2,0,GM Office, Brajrajnagar - OSPCB
22.0019,100.7939,37,15,0,景洪市江南
21.6158,108.3411,8,44,0,沙万
21.7631,108.3511,10,42,0,防城镇政府
21.6414,108.3506,11,41,0,大海花园
21.4661,109.0981,10,42,0,新市环保局
21.9667,108.6236,6,46,0,市环保站
21.9508,108.6553,5,47,0,市农科院
21.7431,108.5989,6,46,0,港区一小
21.5958,109.2256,11,41,0,牛尾岭水库
21.4086,109.1436,23,29,0,海滩公园
21.5233,109.1778,17,35,0,北海工业园
21.4689,111.0286,17,35,0,市环保局茂港分局
21.6533,110.9294,15,37,0,茂石化七小
21.6669,110.9067,13,39,0,健康路
21.6828,110.8592,15,37,0,高岭
21.152875,79.0517531,26,3,0,Opp GPO Civil Lines, Nagpur - MPCB
20.9360711,85.1707021,22,10,0,Talcher Coalfields,Talcher - OSPCB
21.323601,-158.088593,33,19,0,Kapolei
20.869444,-156.492417,6,44,0,KAHULUI
20.67495,-101.35595,18,30,0,Estación Bomberos
20.657939,-101.34915,24,27,0,Estación Teódula
19.9775302,79.2337086,21,9,0,MIDC Khutala, Chandrapur - MPCB
19.9507,110.576,16,36,0,东寨港
20.0053,110.283,6,46,0,秀英海南医院
19.9969,110.338,13,39,0,海南师范大学
20.0356,110.33,10,42,0,龙华路环保局宿舍
20.558153,-101.20485,8,41,0,Estación DIF
19.8389439,75.244448,23,5,0,More Chowk Waluj, Aurangabad - MPCB
19.645324,77.6345232,22,7,0,Chandrapur, Chandrapur - MPCB
18.428388,-66.141657,46,4,0,Cataño 40
17.6599188,75.9063906,15,1,0,Solapur, Solapur - MPCB
17.72,83.3,8,24,0,GVM Corporation, Visakhapatnam - APPCB
17.320057,76.820889,23,9,0,Lal Bahadur Shastri Nagar, Kalaburagi - KSPCB
17.540891,78.358528,1,31,0,Bollaram Industrial Area, Hyderabad - TSPCB
17.460103,78.334361,13,19,0,Central University, Hyderabad - TSPCB
17.4342359,78.4170318,12,20,0,ICRISAT Patancheru, Hyderabad - TSPCB
17.4559458,78.4332152,5,23,0,Sanathnagar, Hyderabad - TSPCB
17.349694,78.451437,9,19,0,Zoo Park, Hyderabad - TSPCB
16.9872867,81.7363176,17,15,0,Anand Kala Kshetram, Rajamahendravaram - APPCB
16.5150833,80.5181667,15,12,0,Secretariat, Amaravati - APPCB
16.507014,80.627767,14,9,0,PWD Grounds, Vijayawada - APPCB
15.351773,75.140726,16,12,0,Deshpande Nagar, Hubballi - KSPCB
13.428828,77.731418,16,15,0,Chikkaballapur Rural, Chikkaballapur - KSPCB
13.67,79.35,15,17,0,Tirumala, Tirupati - APPCB
13.164544,80.26285,9,18,0,Manali, Chennai - CPCB
12.920984,77.584908,19,13,0,Jayanagar 5th Block, Bengaluru - KSPCB
13.0270199,77.494094,12,17,0,Peenya, Bengaluru - CPCB
12.9135218,77.5950804,12,17,0,BTM Layout, Bengaluru - CPCB
12.951913,77.539784,15,17,0,Bapuji Nagar, Bengaluru - KSPCB
13.029152,77.585901,14,18,0,Hebbal, Bengaluru - KSPCB
12.917348,77.622813,11,21,0,Silk Board, Bengaluru - KSPCB
12.938539,77.5901,20,11,0,Hombegowda Nagar, Bengaluru - KSPCB
12.9352049,77.6814488,17,12,0,BWSSB Kadabesanahalli, Bengaluru - CPCB
12.9099161,80.1076538,6,26,0,Alandur Bus Depot, Chennai - CPCB
13.0052189,80.2398125,11,20,0,Velachery Res. Area, Chennai - CPCB
12.1696,-68.99,49,3,0,US Diplomatic Post: Curacao
10.782773,106.700035,24,38,0,US Diplomatic Post: Ho Chi Minh City
9.058498,38.761642,46,6,0,US Diplomatic Post: Addis Ababa Central
8.996519,38.725433,52,0,0,US Diplomatic Post: Addis Ababa School
6.3790379,-75.4509125,21,22,0,GIR-SOSN - Girardota - S.O.S Aburrá Norte
6.4369602,-75.330452,30,13,0,BAR-TORR - Barbosa - Torre Social
6.2525611,-75.5695801,43,9,0,CEN-TRAF - Estación Tráfico Centro
6.1856666,-75.5972061,22,30,0,ITA-CJUS - Itagüí - Casa de Justicia Itagüí
6.0990806,-75.6386261,23,29,0,CAL-LASA - Caldas - Corporacion Universitaria Lasallista
6.1523128,-75.6274872,45,7,0,SUR-TRAF - Estación Tráfico Sur
6.0930777,-75.637764,34,18,0,CAL-JOAR - Caldas - E U Joaquín Aristizabal
6.3453612,-75.5047531,15,28,0,COP-CVID - Copacabana - Ciudadela Educativa La Vida
6.2372341,-75.610466,27,25,0,MED-BEME - Medellin, Belén - I.E Pedro Justo Berrio
6.1997828,-75.5609589,20,23,0,MED-TESO - Medellín, El Poblado - I.E INEM sede Santa Catalina
6.2934599,-75.556427,17,19,0,MED-ARAN - Medellín, Aranjuez - I.E Ciro Mendia
6.3375502,-75.5678024,34,18,0,BEL-FEVE - Bello - I.E. Fernando Vélez
6.1686831,-75.5819702,27,25,0,ENV-HOSP - Envigado - E.S.E. Santa Gertrudis
6.1454778,-75.6214142,21,22,0,SAB-RAME - Sabaneta - I.E. Rafael J. Mejía
4.637735,-74.09486,30,22,0,US Diplomatic Post: Bogota
0.300225,32.591553,47,5,0,US Diplomatic Post: Kampala
-20.8847369878067,55.4538109724538,26,26,0,FR38008
-21.3344236402583,55.4590212011017,17,18,0,FR38011
-23.7937,151.16,12,40,0,Fisherman's Landing
-23.8199,151.154,12,40,0,Boat Creek
-23.9408,151.351,20,32,0,Boyne Island
-27.4296,153.158,17,35,0,Wynnum
-27.4379,153.15,17,35,0,Wynnum West
-27.4065,153.153,15,37,0,Lytton
-27.4654,153.087,13,39,0,Cannon Hill
-27.6125,153.136,18,34,0,Springwood
-33.4033333,149.5733333,19,33,0,Bathurst
68.435397,17.424891,44,8,0,Sentrum
67.275501,14.419057,45,7,0,Olav V gate
63.43293,10.41067,38,11,0,Bakke kirke
63.1012099995673,21.60407,40,11,0,FI00586
61.5085399995503,23.67583,32,14,0,FI00838
61.4990999995502,23.80221,41,11,0,FI00801
59.7792299995335,21.37395,25,27,0,FI00349
59.210191,10.940097,30,22,0,Nygaardsgata
55.6899999995005,21.17946,48,4,0,LT00033
55.4633331294989,26.00416946,49,2,0,LT00051
55.79216,-3.2429,47,5,0,Auchencorth Moss
54.78143,9.43809,51,1,0,DESH022
54.7152786294941,25.28944397,51,1,0,LT00003
54.88361,-1.406878,39,13,0,Sunderland Silksworth
53.631805,11.398332,50,1,0,DEMV023
54.09262,12.099553,50,1,0,DEMV022
54.17133,12.080003,50,1,0,DEMV021
53.6989,-113.2233,39,13,0,Fort Saskatchewan
53.6825,-112.8686,33,19,0,Elk Island
53.562455,8.569405,51,1,0,DEHB005
52.99796,7.94257,51,1,0,DENI053
53.142836,8.212084,51,1,0,DENI143
52.95702,11.16705,51,1,0,DENI060
52.99875,11.73846,51,1,0,DEBB063
53.37287,-3.022722,41,11,0,Wirral Tranmere
53.244131,-1.454946,43,7,0,Chesterfield Loundsley Green
52.8037,5.05051,48,4,0,Wieringerwerf-Medemblikkerweg
52.26673,10.54055,51,1,0,DENI075
52.127899,11.611464,51,1,0,DEST077
52.268354,11.864763,51,1,0,DEST002
52.388869,13.094618,51,1,0,DEBB073
52.420442,12.552303,51,1,0,DEBB055
52.401352,13.059945,51,1,0,DEBB021
52.409309,12.548376,51,1,0,DEBB049
52.608609,12.885194,51,1,0,DEBB067
52.337336,14.538595,51,1,0,DEBB045
52.1342,-122.1528,30,22,0,Williams Lake Column
51.9142,4.47992,40,12,0,Rotterdam-Schiedamsevest
52.105,5.12446,38,14,0,Utrecht-de Jongweg
51.494756,11.981314,51,1,0,DEST102
51.462734,13.526796,51,1,0,DEBB007
51.897598,14.057064,49,3,0,DEBB066
51.756476,14.327998,51,1,0,DEBB044
51.746344,14.33455,51,1,0,DEBB064
51.5645,14.3764,51,1,0,DEBB083
51.781784,-4.691462,39,13,0,Narberth
51.744806,-1.260278,42,8,0,Oxford St Ebbes
51.0485717254673,2.42004340911231,44,7,0,FR10004
51.0612776980517,3.77526238964536,48,1,0,BETR710
51.2286298134603,4.42845417753557,48,1,0,BETR803
51.1771308881904,4.41794863777773,48,1,0,BETR817
51.236194200299,4.38522368445472,48,1,0,BELAL01
51.2082294722138,4.42155925106527,48,1,0,BETR805
51.3139288945411,4.40386813974961,47,1,0,BELSA04
51.209663,4.431821,48,1,0,BETR801
51.20951873198,4.43179223079244,48,1,0,BETR802
51.2539648810663,4.20146039512657,47,1,0,BELAL03
51.252103,4.491362,48,1,0,BETR811
50.796632,4.358539,47,1,0,BETR012
50.849665,4.33382,46,1,0,BETR001
51.2609897078635,4.42439900693533,48,1,0,BETM802
51.2906675271431,4.29332947694039,48,1,0,BELAL04
51.1702980388321,4.34100506456284,48,1,0,BELHB23
50.807018,8.769396,51,1,0,DEHE062
50.977462,11.32607,51,1,0,DETH083
50.6452789306641,13.8512496948242,31,21,0,CZ0UTPM
50.674702,-120.3339,32,20,0,Kamloops Federal Bui
50.550028,9.684854,50,2,0,DEHE059
49.89833,10.887686,50,2,0,DEBY009
50.1728248596191,12.6728181838989,22,30,0,CZ0KSOM
50.585765838623,13.6734180450439,29,23,0,CZ0ULOM
50.3765869140625,13.3276224136353,24,28,0,CZ0UTUS
49.9449882507324,17.9095306396484,28,24,0,CZ0TOVK
50.0492,-110.6814,48,4,0,Medicine Hat - Cresc
49.7222599994706,6.30533,43,9,0,LU0105A
49.6287,8.3649,51,1,0,DERP023
49.304889,10.572297,51,1,0,DEBY001
49.462229,11.0248,51,1,0,DEBY058
49.67895,12.159361,49,3,0,DEBY075
49.438464,12.548869,47,5,0,DEBY072
49.7324485778809,13.4022808074951,29,23,0,CZ0PPLA
49.7686157226562,13.4233808517456,27,25,0,CZ0PPLV
49.4015960693359,15.6102457046509,32,20,0,CZ0JJIH
49.2119445794691,18.77111435,23,29,0,SK0020A
49.152778629469,20.29111671,14,38,0,SK0004R
49.8611,-119.475,27,25,0,Kelowna College
48.397079,10.008293,51,1,0,DEBY052
48.95218,10.59772,51,1,0,DEBY187
48.6805572494677,17.36334419,43,9,0,SK0021A
48.9349999994684,22.27361,42,10,0,SK0406A
47.9173751802827,1.96625944333933,26,26,0,FR34014
48.182835,12.781387,50,2,0,DEBY013
48.021657,12.538174,49,3,0,DEBY088
48.1250189994665,17.125611,43,9,0,SK0001A
48.1666679394666,17.11666679,46,6,0,SK0048A
47.8515,88.1267,8,44,0,市站
48.246799,-121.603104,41,10,0,Darrington-Fir St
47.8679,-104.676864,49,3,0,Sidney 201
47.742485358103,-3.3948053239104,32,19,0,FR19032
47.0673852211321,8.46333371888661,24,14,0,CH0005R
47.557473,9.688869,49,3,0,DEBY035
47.213551,-123.100807,31,21,0,Shelton-W Franklin
47.029301,-122.821503,31,21,0,Lacey-College St
47.597222,-122.319722,25,27,0,Seattle-10th & Welle
47.498535,-122.278385,32,20,0,Tukwila_Allentown
47.140499,-122.299202,32,19,0,Puyallup-128th St
47.3386,-116.885902,25,27,0,Plummer CDA Tribe
47.38443,-94.60166,48,4,0,Leech Lake Nation: C
46.8022145735861,4.41750134226911,36,16,0,FR32007
46.7432,82.9994,32,20,0,东门外小游园
46.528,125.112,27,25,0,龙凤区
46.5776,125.1386,32,20,0,萨尔图区
46.1394,-122.9619,31,21,0,Longview-30th Ave
46.32033,-119.9981,28,24,0,Sunnyside-S 16th
46.474438,-117.614764,31,21,0,Mobile-Pomeroy
46.408501,-116.991402,31,19,0,Lewiston
46.425598,-117.059799,27,25,0,Clarkston-13th St
46.7245,-117.1801,34,18,0,Pullman-Dexter Ave
46.491941,-81.003105,44,8,0,Sudbury
45.89525737885,6.11833556860965,36,16,0,FR33201
46.0756,121.9462,19,33,0,科右前旗环保局
45.8167,126.561,18,34,0,松北商大
45.7222,126.599,13,39,0,南岗学府路
45.931301,-116.115196,17,35,0,Grangeville
45.55,-94.1333,38,14,0,St. Cloud
45.641026,-73.499682,29,23,0,Saint-Jean-Baptiste
45.651722,-73.573896,31,21,0,Rivière-des-Prairies
45.3532123361459,4.80481896017008,39,10,0,FR27008
44.9335095989709,4.89348267871268,43,9,0,FR36002
45.1619288830485,5.73559935865769,36,16,0,FR15043
44.8993333327965,15.6097777777778,32,17,0,HR0013A
45.1642,124.8528,26,25,0,江北
45.2924,130.962,9,43,0,环保局　
45.0892,-67.0786,42,10,0,ST ANDREWS
43.9497553662994,4.80507947160248,18,34,0,FR03080
43.9311,116.0781,38,14,0,市政府
43.91,125.287,35,17,0,客车厂
43.95305556,126.4738889,19,33,0,九站
44.52612,-109.016733,30,11,0,Cody Mobile
44.087397,-103.273777,41,11,0,Credit Union
44.089355,-70.214134,44,8,0,Lewiston
43.6236195829158,1.43860701175321,35,16,0,FR12021
43.7020570445023,7.28626221895196,19,32,0,FR24036
43.6156,122.3039,9,43,0,胶建铝业
43.1747,124.3419,31,21,0,监测站
43.1594,124.3711,26,26,0,一商场
43.1847,124.3897,35,17,0,境园
43.84,125.2786,34,18,0,邮电学院
43.8748,125.3649,37,15,0,劳动公园
43.8694,125.325,37,15,0,园林处
43.8667,125.417,40,12,0,经开区环卫处
43.8228,126.4978,12,40,0,电力学院
43.1461,-77.5481,32,0,0,Rochester
43.302777769464,-2.97722222,45,6,0,ES0110A
43.2549999994641,-2.90222222,47,4,0,ES1713A
43.2130555494641,-3.13444444,44,7,0,ES1598A
43.1722222194642,-2.63583333,39,12,0,ES1490A
43.322777769464,-1.96027777,42,9,0,ES1494A
43.309444439464,-2.01111111,45,6,0,ES1697A
42.8947,125.1358,29,23,0,环保局
42.8939,129.4892,21,31,0,妇幼医院
42.9061,129.5042,18,34,0,延边医院
42.68,-114.2525,40,12,0,Minidoka National Hi
42.5275,-108.7203,35,17,0,South Pass
43.0289,-83.669403,42,10,0,FLINT
42.9533,-82.4564,40,12,0,PORT HURON
42.990263,-82.395341,40,12,0,Sarnia
42.887501,-73.249702,50,2,0,Bennington
42.702223,-73.110414,47,5,0,NorthAdams
42.474701,-70.971901,45,7,0,LYNN
42.7708,-71.1028,46,6,0,Haverhill
42.612113,-71.307519,41,11,0,ChelmsfordNR
42.7164799994647,-8.644105,37,12,0,ES2061A
42.8436111094645,-2.66138888,39,12,0,ES1673A
42.8752777694645,-3.23138888,44,7,0,ES1489A
42.8555555494646,-2.66805555,47,4,0,ES1492A
42.4388899994652,-2.25028,41,7,0,ES1779A
43.0483333294643,-2.19111111,47,4,0,ES1499A
42.0352,119.2654,20,32,0,银河街
41.823101,-90.211899,45,7,0,Clinton, Chancy Park
41.7714,-88.1522,25,13,0,Naperville
41.6708,-87.7325,24,27,0,ALSIP
41.7547,-87.7136,28,23,0,CHI_COM
42.0603,-87.8631,14,11,0,DESPLNS
41.864329,-87.748826,23,28,0,Cicero2
42.3075,-83.15,41,11,0,DEARBORN
42.261669,-83.157893,45,7,0,NMH48217
42.312078,-83.103469,46,6,0,MILITARY PARK
42.3144,-83.0433,43,9,0,Windsor Downtown
41.867336,-75.686602,32,8,0,New Milford
42.120248,-72.58499,22,30,0,SPRINGFIELDSP
42.065119,-71.012686,34,18,0,Brockton
42.2191666594655,-8.74194444,37,12,0,ES1137A
42.3519444394653,-7.87694444,42,7,0,ES1096A
41.6455555494667,-4.73027777,47,3,0,ES1631A
41.6299999994667,-4.74055555,49,1,0,ES2010A
41.6561111094667,-4.73388888,48,2,0,ES1636A
42.3361099994653,-3.63611,42,8,0,ES1443A
42.3416699994653,-2.23167,40,9,0,ES1746A
42.3399999994653,-2.05972,42,7,0,ES1753A
42.1758299994656,-1.74333,40,9,0,ES1649A
41.1386,121.1303,14,36,0,北湖公园
41.18222,-104.778336,37,15,0,Cheyenne NCore
41.23172,-80.80116,40,12,0,Youngstown - Laird A
41.4994,-74.0097,22,12,0,Newburgh
41.6205555494667,-4.74666666,46,4,0,ES1632A
40.7378,107.3715,45,7,0,市环保大楼
40.6575,109.8104,20,15,0,包百大楼
40.6821,109.8538,34,18,0,青山宾馆
40.6288,109.8654,36,16,0,惠龙物流
40.6532,109.8756,25,27,0,市环境监测站
40.5905,110.0067,29,23,0,东河城环局
40.5546,110.0377,28,24,0,东河鸿龙湾
40.8452,111.659,34,18,0,兴松小区
40.8369,111.751,35,17,0,如意水处理厂
40.1269,113.2661,13,39,0,安家小村
40.4531,-122.2978,31,9,0,Anderson
40.3053,-79.5061,44,6,0,Greensburg
40.8492,-73.9319,20,14,0,Manhattan/IS143
40.85355,-73.9661,17,35,0,Fort Lee Near Road
40.462181,-74.429436,30,22,0,Rutgers University
40.7142,-73.995,24,9,0,Division Street
40.7447,-73.5869,23,11,0,Eisenhower Park
40.756667,-8.572778,38,14,0,PT02004
40.2519399994703,-4.27472,48,2,0,ES1810A
40.34193999947,-3.83389,46,4,0,ES1890A
40.4452777694697,-3.70638888,46,1,0,ES1525A
40.33971999947,-3.73583,47,2,0,ES1567A
40.4791699994696,-3.37778,48,2,0,ES1563A
40.4549999994696,-3.48417,47,2,0,ES1752A
40.3980555494698,-3.68666666,46,3,0,ES1937A
40.4397222194697,-3.69027777,45,4,0,ES1938A
40.4658333294697,-3.68833333,47,2,0,ES1940A
40.6338899994691,-4.01333,46,3,0,ES1803A
40.4199999994698,-3.74916666,46,3,0,ES1193A
40.1852799994705,-3.67972,46,3,0,ES1809A
40.5933299994693,-3.50306,47,2,0,ES1838A
40.4299999994697,-3.54583,46,3,0,ES1869A
40.4216666594698,-3.68222222,44,3,0,ES0118A
40.3847222194699,-3.71861111,47,1,0,ES1943A
40.3128499994701,-3.71724,48,2,0,ES2028A
40.1672199994705,-3.27667,49,0,0,ES1811A
39.6719,106.8219,36,16,0,聚英学校
39.6969,106.8089,36,16,0,市林业局
39.6572,106.7931,35,17,0,中海勃湾学校
40.1097,113.3819,22,30,0,果树场
40.0758,113.2994,25,27,0,云冈宾馆
40.0844,113.2711,27,25,0,教育学院
40.1114,113.2803,23,29,0,供排水公司
39.617,122.011,15,20,0,东山公园
39.808334,-120.471664,30,22,0,Portola
39.9369,-120.9478,17,35,0,Quincy BAM
39.54092,-119.746764,23,29,0,Sparks
39.531799,-107.782303,36,14,0,Rifle Particulate
39.831921,-89.644164,43,8,0,Springfield Ag
39.83562,-84.72049,45,7,0,Preble County
39.42689,-84.20077,48,4,0,Lebanon
39.705799,-79.011902,45,7,0,Piney Run
39.9233,-77.3081,35,16,0,Arendtsville
40.0467,-76.2833,44,8,0,Lancaster
39.8344,-75.7678,38,14,0,New Garden
40.0439,-76.1125,36,16,0,Lancaster DW
39.934446,-75.125291,31,21,0,Camden Spruce St
39.2282,106.7704,24,28,0,惠农南大街
39.3179,112.4254,14,38,0,区政府
39.0511,121.7769,18,34,0,开发区
39.166,-120.1488,36,16,0,Tahoe City
39.0242,-95.7114,35,17,0,KNI-Topeka
39.303056,-94.376389,43,9,0,LIBERTY
38.8386,-94.7464,44,8,0,Heritage Park
38.650259,-90.350463,38,14,0,Ladue
38.656449,-90.198548,36,16,0,BLAIR STREET
38.65643,-90.18977,32,20,0,Branch Street
39.101439,-90.344494,39,12,0,JERSEYVL
39.21494,-84.69086,43,9,0,Colerain
39.0828,-84.1441,49,3,0,Batavia
38.9792799994747,-1.85213,42,8,0,ES1535A
38.5061,102.1708,4,48,0,公司二招
38.3254,116.8584,45,7,0,电视转播站
38.3228,116.8709,41,11,0,市环保局
38.448581,-90.398436,32,21,0,ARNOLD
38.5425,-90.263611,31,21,0,BROADWAY (South)
38.1761,-89.7883,28,12,0,HOUSTON
38.088902,-88.625,40,9,0,KNIGHT_P
38.4592,-82.6339,36,16,0,FIVCO
37.7124,112.469,7,45,0,晋源
37.5436,121.3181,9,43,0,西郊化工站
37.154,122.471,9,43,0,荣成市环保局办公楼
37.125861,-122.122127,11,21,0,Boulder Creek
37.747445,-113.055524,27,25,0,Enoch
37.179,-113.3052,26,26,0,Hurricane
37.7808,-87.0756,31,21,0,OWENPRI
37.1314,-86.1481,30,22,0,Mammoth Cave NP
37.7064,-85.8517,34,18,0,ETOWN2
37.2831,-83.2203,37,15,0,HAZ2
37.871111,-8.723889,42,10,0,PT04003
36.5767,109.4824,28,24,0,市监测站
36.497,117.8477,50,2,0,双山
36.6377,117.9544,51,1,0,气象站
36.5975,-118.04,18,11,0,Lone Pine Paiute/Sho
36.0783,111.5531,11,41,0,临钢医院
36.0875,111.5025,11,41,0,市委
36.0528,-89.3819,40,12,0,DYERTEOM
35.9803,-83.9306,40,10,0,AIR LAB
34.9817,118.2764,50,2,0,新光毛纺厂
35.185,-106.5077,16,16,0,Tramway
34.9789,-85.3009,42,10,0,Rossville
35.0508,-85.2931,39,13,0,Riverside
34.5814,105.7281,39,13,0,进步巷
34.3017,107.0708,27,25,0,竹园沟
34.7745,117.5852,49,3,0,峄城区政府
34.5667,117.732,49,3,0,台儿庄区环保局
34.864,117.5564,49,3,0,市中区政府
34.5911,119.1478,41,11,0,矿山设计院
33.38256667,104.9338889,18,34,0,滨江中学
33.975,116.8008,51,1,0,监测站
33.9528,118.293,48,4,0,宿迁学院
33.9592,118.2442,46,6,0,宿迁中学
33.965,118.283,48,4,0,市供电局(启用161107)
33.5981,119.036,41,11,0,钵池山
33.575,119.007,42,10,0,北京南路
33.6067,118.989,45,7,0,市监测站
33.5039,119.135,44,8,0,楚州区监测站
33.6297,119.0186,42,10,0,淮阴区监测站
33.483799,-112.142601,21,31,0,West Phoenix
33.7206,-84.3578,29,24,0,Confederate Ave
33.4333,-82.0219,31,21,0,Augusta
33.1842,106.9893,22,28,0,汉川机床厂子校
32.88922222,115.7838889,51,1,0,阜阳职业技术学院
32.9444,117.3575,51,1,0,百货大楼
32.935,117.3086,49,3,0,二水厂
32.9673,117.3536,51,1,0,淮上区政府
32.8985,117.3065,51,1,0,高新区
32.7639,116.8028,48,4,0,潘集区政府
32.645,117.0083,51,1,0,师范学院
32.6319,116.8306,51,1,0,八公山区政府
32.64600333,117.0411667,50,1,0,益益乳业工业园
32.8913,117.4186,51,1,0,蚌埠学院
33.1944,-97.1933,23,8,0,Denton Airport South
32.791,-79.959,20,15,0,Charleston Public Wo
32.1403,114.0122,48,4,0,南湾水厂
31.8766,117.307,51,1,0,三里街
31.9051,117.16,51,1,0,董铺水库
31.9438,117.266,50,2,0,庐阳区
32.6028,116.8556,46,6,0,谢家集区政府
32.625,116.7039,49,3,0,焦岗湖风景区管理处
31.9108,119.905,10,2,0,安家
32.4867,119.9,50,2,0,公园路
32.4611,119.9219,42,10,0,莲花
32.4639,119.888,50,2,0,留学生创业园
31.909,120.237,47,5,0,五星公园
31.92,120.302,44,8,0,第二实验小学
32.3292,119.8767,49,3,0,王营
32.0417,120.81,25,27,0,紫琅学院
32.0036,-106.5992,5,47,0,Anthony
31.7848,117.196,51,1,0,明珠广场
31.8706,117.259,48,4,0,琥珀山庄
31.8516,117.124,50,2,0,高新区
31.2472,120.561,45,7,0,上方山
31.2864,120.628,46,6,0,南门
31.2703,120.613,43,9,0,吴中区
31.3097,120.669,44,8,0,苏州工业园区
31.3708,120.641,41,11,0,相城区
31.17,120.635,42,9,0,教师进修学校
31.381,120.999,49,3,0,震川中学
31.67,120.758,49,3,0,海虞子站
31.671,120.721,40,3,0,兴福子站
31.656,120.734,44,8,0,菱塘子站
31.453,121.115,50,2,0,太仓市监测站
31.66752,-106.28774,23,29,0,Socorro Hueco C49
31.0386,112.2211,41,11,0,石化一小
31.03389,112.1908,44,8,0,西山林语
30.9414,117.8178,24,28,0,市第四中学
30.39,-89.0497,24,28,0,GPORT YC
30.377501,-88.533897,22,30,0,PASCAGOULA
29.6588,90.9798,43,9,0,区辐射站
29.6514,91.1319,25,27,0,八廓街
29.6541,91.1774,15,37,0,西藏大学
30.2989,109.5039,7,45,0,湖北民院
30.2819,109.4689,17,35,0,州电力总公司
30.2352,115.0625,29,23,0,沈家营
29.635,119.026,10,42,0,千岛湖
30.2747,120.063,19,33,0,西溪
30.2456,120.127,20,32,0,卧龙桥
30.1808,120.088,30,22,0,云栖
30.2366,119.7183,21,30,0,市政府
29.732,120.209,14,36,0,富林印务
30.3503,-95.425,21,31,0,Conroe Relocated C78
30.2258,-92.042801,24,25,0,Lafayette
29.7639,-90.7653,10,39,0,Thibodaux
30.315,-90.8114,16,33,0,French Settlement
30.0411,-90.2728,28,21,0,Kenner
29.9933,-90.1014,26,20,0,City Park
29.9431,-89.9761,21,27,0,Chalmette Vista
30.3008,-89.395798,21,31,0,WAVELAND
30.0842,-84.1617,19,33,0,St. Marks Wildlife R
29.292316,48.04768,22,30,0,US Diplomatic Post: Kuwait City
29.5953,105.0331,47,5,0,市监测站
29.5947,105.0717,47,5,0,东兴区政府
29.5817,105.0653,46,6,0,内江二中
29.5822,105.0406,49,3,0,内江日报社
29.3578,113.1094,43,9,0,南湖风景区
29.4758,113.2621,47,5,0,云溪区
29.355,113.2117,50,2,0,金凤水库
29.6039,115.9114,33,19,0,综合工业园
29.077,119.647,9,43,0,十五中
29.1029,119.686,8,44,0,监测站
29.1128,119.6533,11,41,0,武警支队
28.5808,112.3458,46,6,0,市环保局
28.56,112.3439,47,5,0,市特殊教育学校
28.6047,112.3347,47,5,0,资阳区政务中心
28.5819,112.3744,47,5,0,赫山环保分局
28.4569,118.0058,16,36,0,百草园
28.4459,117.973,12,40,0,市监测站
28.4622,117.9511,11,41,0,凤凰光学
28.4303,117.9033,10,42,0,开发区管委会
28.4231,119.879,28,24,0,余庄前
28.5997,-81.3628,27,23,0,Winter Park
28.4983799995488,-13.86083,40,9,0,ES1978A
27.8094,102.3419,13,39,0,青龙寺
27.8408,102.2714,8,44,0,邛海宾馆
27.8978,102.2625,14,38,0,西昌市政府
27.8847,102.2689,14,38,0,凉山州政府
27.7019,106.9242,29,23,0,凤凰山
27.72,106.9178,32,20,0,干田坝
27.7231,109.1794,28,24,0,铜仁七中
27.7314,112.0194,46,6,0,市委党校
27.8336,113.251,39,13,0,大京风景区
27.4948,114.0944,27,25,0,武功山气象站
27.7758,115.0586,13,40,0,北岗
27.8344,114.9831,13,39,0,飞宇
27.7842,114.3953,11,41,0,市石油公司
27.8072,114.4011,9,43,0,市广电局
27.8097,114.375,11,41,0,宜春学院北校区（181229启用）
28.0797,116.2239,7,45,0,桐源党溪
27.9883,116.3553,6,46,0,市站
27.9639,116.3598,7,45,0,血防站
28.0005,116.3574,6,46,0,采茶剧团
28.095,116.9622,4,48,0,龙虎山
27.9747,120.76,6,46,0,龙湾
27.2944,105.31,33,19,0,师专
26.6266,106.6243,40,12,0,鉴湖路
27.3033,111.5239,46,6,0,市水土所
27.2317,111.4733,43,9,0,市一中
27.2582,111.4908,43,9,0,市化工厂
27.2537,111.4503,42,10,0,市罐头厂
27.2272,111.4328,41,11,0,市环保局
26.9089,112.5328,45,7,0,原169医院
26.9258,112.6194,28,6,0,衡阳化工总厂
26.8956,112.6211,41,7,0,珠晖区环保局
26.9056,112.5664,30,6,0,真空机电公司
27.0658,114.9817,10,42,0,红声器材厂
27.11,114.9739,12,40,0,市森林工业局
27.1311,114.99,9,43,0,市环境监测站
27.0983,115.0075,11,41,0,青原区法院
26.724167,-80.663055,28,24,0,Belle Glade
26.2081,111.6217,14,38,0,零陵南津渡
25.9061,113.0073,4,48,0,马头岭
25.1328,99.1711,7,45,0,市环保局
25.8567,98.8601,16,36,0,州监测站
25.7054,100.1542,29,23,0,大理市环境监测站
25.5811,100.2171,30,22,0,大理古城
25.3167,110.4144,25,27,0,电子科大尧山校区
25.2697,110.2819,13,39,0,监测站
25.2708,110.3089,18,34,0,龙隐路小学
25.2178,110.2869,19,33,0,八中
25.0441,101.5482,14,38,0,州环境监测站
24.3898,109.4883,22,30,0,柳东小学
24.4175,111.5269,36,16,0,环保小区
24.4072,111.5622,33,19,0,政协大楼
24.9424,118.6663,5,47,0,万安
24.432133,118.312256,11,41,0,Kinmen
22.44527777777778,114.02277777777778,6,46,0,Yuen Long
22.627392,120.358083,6,46,0,Fengshan
21.392834,-157.969131,38,14,0,Pearl City
13.08784,80.27847,26,26,0,US Diplomatic Post: Chennai
6.2633696,-75.5770035,28,24,0,MED-UNNV - Medellín,  centro occidente - Universidad Nacional, sede El Volador
6.1825418,-75.5506363,20,32,0,MED-LAYE - Medellín, El Poblado - Tanques La Ye EPM
6.2778502,-75.6364288,26,26,0,MED-SCRI - Medellín, San Cristobal - Parque Biblioteca Fernando Botero
-21.009739859322,55.2727106111753,26,25,0,FR38020
-21.2943375423482,55.6279044745161,33,19,0,FR38017
-32.2716667,150.8858333,29,23,0,Muswellbrook
-32.5297222,151.1497222,8,44,0,Singleton
-36.0516667,146.9741667,18,34,0,Albury
69.65625,18.96372,30,20,0,Hansjordnesbukta
68.79222701,16.53742346,30,22,0,Seljestad Rv83
63.419239,10.395945,32,20,0,Elgeseter
63.43038,10.39355,28,13,0,Torvet
63.410491,10.444352,1,0,0,Omkjøringsvegen
60.79089,10.6967,35,17,0,Minnesundvegen, Gjøvik
60.88364255,11.55930063,40,12,0,Leiret
60.5300199995406,27.6754,42,10,0,FI00893
61.0574799995458,28.24585,24,28,0,FI00280
60.294268,5.324619,25,27,0,Rådal
60.361135,5.23686,25,21,0,Loddefjord
59.89869,10.81495,25,27,0,Manglerud
60.2899499995383,25.03953,29,23,0,FI00370
60.1696399995371,24.93924,24,28,0,FI00564
58.951877,5.721875,35,16,0,Schancheholen
58.96173,5.73147,31,21,0,Våland
58.96415,5.72785,31,20,0,Kannik
59.13354,9.6219,22,27,0,Knarrdalstranda
53.80489,-3.007175,39,9,0,Blackpool Marton
53.201694,-105.75203,38,14,0,PRINCE ALBERT
53.39025,-6.305266,45,5,0,IE003AP
52.2015,4.98744,42,10,0,Breukelen-Snelweg
51.881944,-8.456667,39,11,0,IE0110A
50.947317025658,1.84308245158086,41,11,0,FR10016
50.5103645324707,13.6452722549438,34,18,0,CZ0UMOM
49.4982939994699,0.758833,29,23,0,FR05087
49.7701263427734,13.368221282959,34,17,0,CZ0PPLL
49.7473297119141,13.3810386657715,34,18,0,CZ0PPLE
49.2329063415527,17.6671752929688,21,31,0,CZ0ZZLN
48.115,-123.436434,14,38,0,Port Angeles-E 5th S
47.878159,-95.029172,42,10,0,Red Lake Nation
47.3349,130.2659,10,42,0,哈啤分公司
46.8130974472165,6.94448020280301,23,15,0,CH0002R
46.8032,130.3648,25,27,0,十一中
46.2183,-119.2015,32,20,0,Kennewick-Metaline
46.318,-117.985,29,23,0,Dayton-W Main
46.243621,-114.158889,35,17,0,Hamilton PS 46
46.5331,-84.3094,39,13,0,Sault Ste Marie
46.3864,-62.5828,34,13,0,SOUTHAMPTON
45.528501,-122.972398,31,19,0,Hillsboro - Hare Fie
45.602419,-121.203387,33,17,0,The Dalles - Cherry
45.652231,-118.823033,24,14,0,Pendleton - McKay Cr
45.426351,-117.296066,19,31,0,Enterprise - US Fore
45.60176,-73.541992,1,2,0,Chenier
44.6306,-121.131599,36,14,0,Madras - Westside Sc
44.980598,-74.695297,32,4,0,St Regis Mohawk-NY
44.5694309830826,5.27896773343405,44,4,0,FR36021
43.9335199525261,5.71170417210011,39,13,0,FR24039
44.299787,-120.844773,34,16,0,Prineville - Davidso
44.417999,-118.951302,39,10,0,John Day Dayton St
44.3,-78.35,24,28,0,Peterborough
44.219867,-76.521128,44,8,0,Kingston
44.476101,-73.210297,41,11,0,Burlington
44.528389,-72.868973,49,3,0,Underhill
43.6757493538059,4.08842150423761,30,21,0,FR08020
43.4022486696243,4.98221826247801,25,27,0,FR02008
43.4378086826446,6.7683924408099,22,6,0,FR03070
43.6801,122.2532,6,46,0,艺术职业学校
43.7878,125.454,42,10,0,净月潭
43.58925,-119.048302,29,21,0,Burns - Washington S
43.58031,-116.562676,18,18,0,Nampa Fire Station
43.4419,-80.5044,28,24,0,Kitchener
43.6619,-79.3853,32,20,0,Toronto Downtown
43.2561,-79.8617,30,22,0,Hamilton Downtown
43.1583,-79.235,33,19,0,St. Catharines
42.589833,-112.458889,38,6,0,Shoshone Bannock Tri
42.974461,-81.200858,42,10,0,London
42.6725,-81.1647,41,11,0,Port Stanley
42.8781,-78.8094,16,18,0,Buffalo
42.190296,-121.731369,23,27,0,Klamath Falls - Pete
42.189215,-120.353969,31,19,0,Lakeview - Center &
41.802222,-8.693889,50,2,0,PT01047
41.0971,122.9642,13,39,0,铁西三道街
41.0833,122.9481,14,38,0,铁西工业园区
41.3536,-72.0789,31,21,0,Groton Fort Griswold
41.274167,-8.376111,40,11,0,PT01044
41.235556,-8.618611,47,5,0,PT01024
41.371389,-7.790833,48,4,0,PT01048
40.170917,-122.255667,10,31,0,Red Bluff - Walnut o
40.301899,-121.235001,26,24,0,Chester BAM
40.496408,-112.036305,40,12,0,Herriman #3
40.6281,-75.3411,36,16,0,Freemansburg
40.641819,-74.018707,24,9,0,Bklyn - PS 314
40.694401,-73.928596,25,8,0,Bklyn - PS274
40.8197,-73.9481,23,11,0,CCNY
40.7269,-73.8933,26,8,0,Maspeth
40.233056,-7.301944,35,14,0,PT02020
39.5453,116.7022,39,13,0,河北工业大学
39.533889,-122.190833,7,8,0,Willows-Colusa
39.76161,-121.84048,8,8,0,Chico -  East
40.0845,-82.81552,45,6,0,New Albany
39.988842,-75.207205,27,25,0,MON
39.923889,-8.891667,22,30,0,PT02019
39.3514,112.44,10,42,0,平朔
39.3606,112.4549,9,43,0,朔唯
38.885,121.56388889,16,36,0,星海三站
38.911944444,121.63305556,14,38,0,青泥洼桥
38.863888889,121.625,20,32,0,傅家庄
39.2031,-122.0169,9,7,0,Colusa - Sunrise Blv
39.015,-122.286111,29,8,0,Cortina Rancheria
38.7458,-121.2653,9,7,0,Roseville - N.Sunris
38.683304,-121.164457,19,10,0,Folsom
38.897611,-119.732101,29,23,0,Ranchos
38.75961,-94.57983,39,13,0,RG_SOUTH
38.403765,-122.818294,12,40,0,Sebastopol
37.9383,-122.025,13,39,0,Concord
37.9722,-122.5189,16,36,0,San Rafael
38.278849,-122.275024,15,37,0,Napa - Napa Valley C
38.102507,-122.237976,9,43,0,Vallejo
38.3525,-121.9617,13,39,0,Vacaville
38.53455,-121.7734,16,36,0,Davis - UCD Campus
38.302591,-121.420838,19,33,0,Elk Grove
38.065,-84.5,34,16,0,NEWTWN
37.743061,-122.169907,10,42,0,Oakland
37.8148,-122.282402,9,43,0,Oakland West
37.793624,-122.263376,8,44,0,Laney College
37.701222,-121.903019,10,42,0,Pleasanton - Owens C
36.6106,109.5056,26,26,0,百米大道
36.6028,109.4761,28,24,0,延大医附院
37.067003,-122.057206,6,27,0,Zayante Fire Station
36.6324,-120.3822,13,39,0,Tranquillity
36.0543,120.2992,41,11,0,市南区西部子站
36.1994,-120.0991,10,42,0,Huron
36.106389,-115.253333,32,20,0,Paul Meyer
35.8142,-80.2633,22,10,0,LWATTOWR
35.0573,118.3418,48,4,0,沂河小区
35.0622,118.2939,31,4,0,鲁南制药厂
35.0896,118.4023,49,3,0,河东保险公司
35.4178,119.4641,39,13,0,监测站
35.4234,119.5198,42,10,0,市政府广场
35.3962,119.54,41,11,0,港务局
35.25639,-120.668892,4,12,0,San Luis Obispo - Hi
35.1353,-106.584702,13,36,0,Del Norte
35.116866,-87.419726,41,9,0,Loretto
34.5885,119.176,40,12,0,市环境监测站
34.6972,119.3581,42,10,0,德源药业(直管站)
34.7519,119.3608,43,9,0,胡沟管理处
34.637798,-120.456703,14,38,0,Lompoc H Street
33.737,113.182,41,11,0,平顶山工学院
33.9447,118.3225,45,7,0,宿豫区政府(181206启用)
33.676535,-117.331027,6,46,0,Lake Elsinore - W. F
32.996,113.996,45,7,0,天方二分厂　
32.939,117.3961,48,4,0,工人疗养院
32.1342,114.0681,47,5,0,市酿酒公司
32.1383,114.0614,45,7,0,审计局
32.322573,-111.037709,39,13,0,Orange Grove
32.1731,-110.9797,38,14,0,Rose Elementary
31.7371,116.508,46,6,0,监测大楼
31.7618,116.478,46,6,0,皖西学院
31.7797,116.5068,45,7,0,朝阳厂
31.7712,116.5661,45,7,0,开发区
31.8572,117.25,49,3,0,长江中路
31.8585,117.336,47,5,0,瑶海区
31.7956,117.302,46,6,0,包河区
31.7386,117.278,48,4,0,滨湖新区
31.3019,120.591,41,11,0,彩香
31.3264,120.596,41,11,0,轧钢厂
31.2994,120.543,38,14,0,苏州新区
31.155,120.636,45,7,0,吴江市环保局
31.172,120.658,45,7,0,吴江开发区
31.0483,112.2014,40,12,0,竹园小学
30.4622,-91.1769,34,15,0,Capitol
30.2028,115.0767,23,29,0,陈家湾
30.2043,114.8949,20,32,0,铁山
30.3714,114.8989,25,27,0,赵家坝
29.6816,115.9872,34,18,0,十里
29.7048,115.9581,36,16,0,茅山头
29.7292,115.988,22,30,0,西园
29.6535,116.0174,40,12,0,五七二七厂
29.7534,116.0726,27,25,0,石化总厂
29.6995,116.0257,35,17,0,外国语学校（20181128启用）
30.1783,-82.6192,33,19,0,Lake City
30.2603,-81.4533,23,29,0,Mayo Clinic
29.4251,113.1493,47,5,0,城陵矶
29.4402,112.9943,37,15,0,君山区
29.2631,-94.8564,2,2,0,Galveston Airport C1
28.958372,-82.643094,26,26,0,Crystal River Preser
28.2189,112.8872,39,13,0,高开区环保局
28.2053,113.0792,39,13,0,马坡岭
28.19,112.9394,37,15,0,湖南师范大学
28.1442,112.9956,41,11,0,雨花区环保局
28.2597,112.9792,41,11,0,伍家岭
28.1944,113.0014,39,13,0,火车新站
28.1308,112.8908,42,10,0,湖南中医药大学
28.3586,112.9958,36,16,0,沙坪
28.2325,113.0833,41,11,0,经开区环保局
28.1178,112.9844,36,16,0,天心区环保局
27.8403,112.9118,26,17,0,市监测站
27.8728,112.8937,33,19,0,江麓
27.8867,113.095,31,20,0,株冶医院
27.8667,113.167,34,18,0,市四中
27.8381,113.143,30,20,0,火车站
27.9153,113.0048,32,20,0,昭山
27.9958,113.1817,32,19,0,云田中学
27.811814,-97.4657,29,23,0,Corpus Christi Dona
27.3392,103.7032,12,40,0,监测站
27.3361,103.7225,11,41,0,环保局
27.0892,-82.3625,21,31,0,Jackson Road
26.204697,50.57083,19,33,0,US Diplomatic Post: Manama
26.5928,101.5769,19,33,0,河门口
26.5506,104.9544,27,25,0,双水
26.2564,105.9439,29,23,0,金钟山
26.2708,117.6353,8,44,0,三明二中
26.3108,117.7275,8,44,0,洋溪
25.182722,121.529583,16,36,0,Yangming
24.6967,108.1009,5,47,0,市疾控中心
24.81119444,113.5593889,5,47,0,碧湖山庄
25.1035,117.0216,4,48,0,龙岩市监测站
25.0661,117.0256,4,48,0,闽西职业技术学院
24.818055556,118.15694444,5,47,0,溪东
24.476666667,118.15138889,11,41,0,洪文
24.740644,121.088903,13,39,0,Zhudong
23.9011,106.6103,12,40,0,市监测站
23.8844,106.6527,15,37,0,市中心血站
22.9169,112.0392,44,8,0,新市府
22.9394,112.0369,33,19,0,市监测站
22.9539,112.0539,36,16,0,牧羊
22.56263,88.36304,21,38,0,US Diplomatic Post: Kolkata
22.285,114.14444444444445,6,46,0,Central/Western
22.371666666666666,114.11444444444444,7,45,0,Tsuen Wan
22.391111111111112,113.97666666666667,4,48,0,Tuen Mun
22.28888888888889,113.94361111111111,7,45,0,Tung Chung
22.281944444444445,114.15805555555556,2,50,0,Central
22.322499999999998,114.16833333333334,1,51,0,Mong Kok
22.5545,114.1063,4,48,0,通心岭子站
22.5625,114.117,5,47,0,洪湖
22.5417,113.987,5,47,0,华侨城
22.7267,114.24,4,48,0,龙岗
22.4251,113.628,5,47,0,唐家
22.8172,114.3244,5,47,0,惠阳区承修路船湖子站
22.608711,120.312017,4,48,0,Fuxing
22.565833,120.337736,4,48,0,Xiaogang
22.632567,120.288086,5,47,0,Qianjin
22.689056,120.332631,5,47,0,Renwu
22.523108,120.561175,3,49,0,Chaozhou
22.673081,120.488033,6,46,0,Pingtung
21.8586,111.9786,8,44,0,鸳鸯湖
21.8536,111.9508,6,46,0,南恩路
21.865,111.9494,7,45,0,马南垌
21.2706,110.3539,7,45,0,湛江影剧院
21.2228,110.3928,5,47,0,市环境监测站
21.1997,110.4019,5,47,0,环保局宿舍
21.2028,110.4111,5,47,0,霞山游泳场
21.2679,110.3316,5,47,0,麻章区环保局
21.2567,110.4558,5,47,0,坡头区环保局
20.0574,110.3232,8,44,0,海南大学
19.07283,72.88261,14,48,0,US Diplomatic Post: Mumbai
18.2489,109.5078,5,47,0,河东子站
18.2681,109.4964,6,46,0,河西子站
17.38405,78.45636,31,31,0,US Diplomatic Post: Hyderabad
6.913253,79.848684,18,34,0,US Diplomatic Post: Colombo
6.2218938,-75.6106033,22,30,0,MED-ALTA - Medellín, Altavista - I.E. Pedro Octavio Amado
-6.236704,106.79324,8,44,0,US Diplomatic Post: Jakarta South
-6.182536,106.834236,9,43,0,US Diplomatic Post: Jakarta Central
-12.099398,-76.96888,34,18,0,US Diplomatic Post: Lima
63.3576,10.3719,34,18,0,E6-Tiller
60.395929,5.312674,23,29,0,Klosterhaugen
60.462665,5.332447,28,24,0,Rolland, Åsane
61.11288,10.46497,30,22,0,Bankplassen
61.12087,10.46563,30,22,0,Lillehammer barnehage
60.37408,5.34042,25,27,0,Danmarks plass
59.93255,10.66984,31,21,0,Smestad
59.955477,11.073983,31,21,0,Vigernes
59.263725,10.411165,27,25,0,Nedre Langgate
53.800117,-112.927795,34,18,0,Bruderheim
53.5453,-113.4992,39,13,0,Edmonton Central
49.435953836447,2.0842890885198,32,19,0,FR18089
49.7220001220703,13.618537902832,19,33,0,CZ0PKUJ
49.5733947753906,15.0802783966064,18,34,0,CZ0JKOS
48.6337298811595,1.83053298706171,30,22,0,FR04181
49.1002566324166,2.3438932224775,29,23,0,FR04048
48.9296919603475,2.29471944382479,27,25,0,FR04002
48.7757726857746,2.37580138136942,26,26,0,FR04034
48.902477279391,2.45249954032755,27,25,0,FR04156
48.366058,-124.610046,33,19,0,Neah Bay 2-Makah Tri
47.9464,-91.4953,45,7,0,Ely
46.66186,-123.7916,19,11,0,South Bend - First S
46.3944,-94.1433,45,4,0,Brainerd
46.0111113455841,8.95717356317848,15,23,0,CH0011A
45.768531,-122.7721,28,22,0,Portland - Sauvie Is
45.806357,-108.426551,33,19,0,Billlings Lockwood
46.035,-74.4819,40,12,0,Saint-Faustin
45.2211,-78.9314,28,24,0,Dorset
44.798859,-68.769676,10,8,0,Bangor KPS
44.817398,-68.772762,37,15,0,Bangor MSS
43.7995,-123.0535,19,33,0,Cottage Grove City S
43.682556,-114.371094,25,21,0,Ketchum
42.659691,20.284598,34,7,0,Peje
42.625568,20.89621,32,17,0,Drenas
42.891794,20.868936,36,13,0,Mitrovice
42.648872,21.137121,33,16,0,Prishtine - IHMK
42.659656,21.157309,36,13,0,Prishtine, Rilindje
42.461143,21.467201,38,7,0,Gjilan
42.623225,-122.810158,21,29,0,Shady Cove - Shady C
42.434149,-123.348466,24,26,0,Grants Pass - Parksi
42.92111,-78.76611,14,20,0,Buffalo Near-road
42.862531,-71.38014,47,5,0,Londonderry - Moose
42.153961,21.29601,38,11,0,Hani i Elezit
42.215859,20.741556,33,15,0,Prizren
42.1941,-122.7086,23,27,0,Ashland Fire Dept
42.33155,-122.880266,21,27,0,Medford Welch & Jack
42.290094,-123.2321,23,23,0,Provolt - Seed Orcha
42.2781,-85.5419,43,9,0,KALAMAZOO
42.2283,-83.2092,45,7,0,ALLEN PARK
41.644067,-83.54625,36,5,0,Erie
41.6833,-71.169701,36,9,0,Fall River
41.8081,-71.415,15,4,0,Providence
41.829495,-71.417457,28,24,0,Near Road
41.840302,-71.361702,42,10,0,E Providence
41.0831,123.0156,24,28,0,明达新区
41.0228,123.1289,35,17,0,千山
41.095938,-80.658467,39,13,0,Youngstown - Head St
41.215,-80.485,36,13,0,Farrell
41.3011,-72.9028,17,8,0,New Haven - Criscuol
40.9102799994684,-3.46667,44,6,0,ES1802A
40.3414,-111.7136,33,19,0,Lindon
40.8278,-73.0575,20,14,0,Holtsville
39.753889,-121.624444,9,4,0,Paradise Theater
39.399841,-119.739606,20,32,0,Toll
39.621462,-119.718738,13,39,0,Spanish Springs
39.741667,-94.858333,39,13,0,St. Joseph
39.565601,-77.721901,38,14,0,Hagerstown
39.0343,117.707,19,33,0,第四大街
38.8394,117.457,21,31,0,永明路
39.1587,117.764,22,30,0,汉北路
39.2474,117.7918,19,34,0,河西一经路
39.1495,117.3916,16,37,0,西四道
39.32756,-121.66881,17,35,0,Gridley
39.144804,-119.766409,21,31,0,CC_Armory
37.739,115.6689,41,11,0,市城管局(181124启用)
37.6583,-120.9936,8,7,0,Modesto - 14th Stree
37.74646,-120.1437,3,6,0,EBAM7 - Sac 5th St.
35.9019,114.17,40,12,0,市监测站
35.7306,114.2878,35,17,0,迎宾馆
34.9162,113.6113,41,12,0,岗李水库
35.1764,113.2464,38,12,0,高新区政府
35.28385,113.5922,42,10,0,市委党校
34.9481,-120.4344,5,11,0,Santa Maria - Broadw
35.408138,-94.524414,36,10,0,ROLAND
34.7772,111.1928,31,21,0,市政府
34.445301,-119.827797,16,36,0,Goleta
34.4278,-119.6903,6,10,0,Santa Barbara
33.7214,113.3064,2,7,0,高压开关厂
33.739,113.292,43,9,0,规划设计院
33.503601,-112.095001,23,29,0,Phoenix JLG Supersit
32.0564,112.1392,40,12,0,樊城新华路
32.1078,114.1044,43,9,0,平桥分局
32.5214,-84.9436,28,24,0,Columbus Airport
31.874,120.526,43,7,0,张家港市监测站
30.5103,117.0549,34,18,0,环科院
30.62673,-81.53597,24,26,0,Yulee
29.670025,-95.128508,26,23,0,Houston Deer Park C3
30.128901,-85.738098,14,38,0,St. Andrews Park
27.8317,99.7056,9,43,0,迪庆州站
27.8953,102.2311,17,35,0,长安
27.6486,106.8906,20,32,0,忠庄
28.0542,-80.6283,4,4,0,Melbourne
26.204697,50.570833,5,47,0,Manama
26.0732,-80.3386,29,23,0,V_VIEW
26.054047,-80.257608,13,22,0,NCORE
26.131256,-80.167847,21,31,0,Near Road
25.4719,-80.4828,14,25,0,Homestead Fire Stati
24.424399,54.433746,13,39,0,US Diplomatic Post: Abu Dhabi
24.428,98.5842,9,43,0,德宏州监测站
24.441,98.578,9,43,0,芒市建设局
21.133894,-101.68025,28,21,0,Estación Facultad de
21.017676,-101.257517,19,31,0,Estación Guanajuato
20.450916,-101.528686,10,40,0,Estación Abasolo
19.5097,-155.9133,11,41,0,Kona
19.717562,-155.110535,1,51,0,Hilo
19.2065,-155.4689,2,50,0,Pahala
14.4688323314949,-60.9274256616508,25,4,0,FR39014
14.6163922565127,-61.1008005114859,6,0,0,FR39008
-23.7744,151.105,13,39,0,Targinie
-23.8701,151.222,14,38,0,Clinton
-32.195,150.6736111,12,40,0,Wyong
-32.8961111,151.6691667,9,43,0,Wallsend
60.2514499995379,24.06287,27,25,0,FI00761
60.1873899995373,24.9506,28,24,0,FI00425
60.3135960714999,24.6894769317978,27,25,0,FI00208
57.481308,-4.241451,35,13,0,Inverness
57.15736,-2.094278,28,24,0,Aberdeen
54.7831,-127.1775,38,10,0,Smithers St Josephs
47.592675,-122.627397,30,21,0,Bremerton-Spruce Ave
47.600863,-122.148397,39,13,0,Bellevue-SE 12th
47.4902,-121.772697,34,18,0,North Bend-North Ben
47.5212,-92.5393,35,17,0,Virginia
46.6526446514876,3.60066325441923,31,10,0,FR07022
46.743889,-92.166946,32,20,0,West Duluth
46.2889,-85.9503,36,15,0,SENEY
45.7667,126.635,14,38,0,道外承德广场
45.9819,126.6106,19,33,0,呼兰师专
45.593325,-73.637328,25,27,0,Caserne 17
45.0878,124.8292,20,32,0,江南
44.943114,-123.005934,27,23,0,Salem - State Hospit
43.8875,126.555,20,32,0,哈达湾
44.61569,-123.091457,21,29,0,Albany - Calapooia S
44.3958,-122.7305,21,29,0,Sweet Home - Fire De
44.3922,-79.3922,26,26,0,Barrie
43.6267,122.2603,8,44,0,通辽宾馆
43.8358,126.5844,10,42,0,东局子
43.8256,126.55,7,45,0,江南公园
43.5714,-83.8908,37,15,0,BAY CITY
43.3306,-81.7425,39,13,0,Grand Bend
42.8953,125.1567,3,9,0,污水处理厂
42.984699,-85.671097,38,14,0,GRAND RAPIDS
42.4033,-82.2086,40,12,0,Chatham
42.2814,118.9233,25,27,0,松山一中
42.2725,118.9572,19,33,0,哈达街
42.2556,118.8789,23,29,0,天义路
41.726811,-81.242156,32,8,0,Painesville - JFS
41.5672,120.4486,23,29,0,河畔小区
41.0903,122.0539,4,48,0,兴隆台
41.1196,123.044,21,31,0,深沟寺
41.0931,123.011,22,30,0,太阳城
41.1953,123.2,25,27,0,宏伟区
41.2553,123.15,20,32,0,新华园
41.2736,123.1761,21,31,0,滨河路
41.2894,123.1417,19,33,0,铁西工业园
41.3369,123.7528,17,35,0,溪湖
41.2864,123.7669,18,34,0,东明
41.2692,123.7989,20,32,0,新立屯
40.924606,-75.067825,30,22,0,Columbia
41.4014,-73.4447,34,18,0,Danbury
40.6511,122.215,7,45,0,镜湖西路
40.571259,-105.079765,23,29,0,Ft. Collins - CSU Fa
40.5802,-74.1994,25,9,0,Fresh Kills
39.5178,116.6838,35,17,0,药材公司
39.5747,116.7729,37,15,0,开发区
39.5343,116.7464,37,15,0,北华航天学院
39.625,121.989,14,21,0,抱龙山庄
39.7394,-75.5581,34,18,0,MLK
39.991389,-75.080833,29,23,0,NEW
40.054171,-74.985166,28,24,0,TOR
38.8516,105.724,37,15,0,环保局新楼
38.973888889,121.61194444,12,40,0,甘井子
38.856111111,121.51805556,25,27,0,七贤岭
38.808055556,121.25888889,23,29,0,旅顺
39.0631,121.9769,16,36,0,双D港
39.282799,-78.081398,36,16,0,BUTLER MANUF. CO NEA
37.3617,118.0018,19,33,0,第二水厂
37.393,117.9776,19,33,0,北中新校
37.5325,122.0508,11,41,0,山大分校
37.5072,122.1067,8,44,0,市监测站
37.161,122.41,16,36,0,山东成山轮胎公司
37.197,122.038,18,34,0,文登市环保局
37.187,122.019,19,33,0,文登市丝绸公司
36.8198,118.3092,14,38,0,莆田园
36.913,121.531,19,33,0,乳山市环保局
36.907,121.544,29,23,0,乳山市气象局
35.8522911094898,14.53898621,20,8,0,MT00004
36.0699,120.3471,26,26,0,市北区子站
35.872,120.039,28,24,0,2号子站
34.7997,111.1489,29,23,0,风景区
32.7592,-97.3414,34,15,0,Haws Athletic Center
31.93,120.94,27,25,0,星湖花园
31.3492,-109.539683,20,32,0,Douglas Red Cross
29.1389,110.48,16,36,0,永定新区
29.5831,-95.0156,23,26,0,Seabrook Friendship
28.3169,109.7325,20,32,0,州政府
28.2675,109.6958,24,28,0,吉首市计生局
27.7297,109.1916,30,22,0,铜仁卫校
26.8576,100.2143,3,49,0,西南郊
26.8802,100.2497,8,44,0,丽江古城
26.2611,105.9606,28,24,0,伍家关(对照点)
26.2431,105.9408,26,26,0,凤凰山
26.2481,105.8983,27,25,0,娄家坡
26.5747,107.9783,11,41,0,市环境监测站
26.53111111,107.8908333,13,39,0,凯里学院
25.0492,101.538,10,42,0,市经济开发区
22.8322,100.9817,10,42,0,普洱第二中学
22.0225,100.8017,24,28,0,景洪市江北
21.310301,-157.858093,21,31,0,Honolulu
21.3039,-157.8711,20,32,0,SAND ISLAND 2 - ANUE
20.7808,-156.4461,8,44,0,Kihei, Maui
6.1555305,-75.6441727,9,43,0,EST-HOSP - La Estrella - Hospital
-23.8626,151.27,8,44,0,South Gladstone
-27.5358,152.993,8,44,0,Rocklea
-27.9612,153.402,18,34,0,Southport
51.0814,-114.1403,31,21,0,Calgary Northwest
49.04278,-122.30972,22,30,0,Abbotsford
49.021506,-122.326556,22,30,0,Abbotsford Airport
49.09556,-122.56694,25,27,0,Langley
48.410198,-122.337601,36,16,0,Mt Vernon-2nd Ave
48.950699,-122.554398,23,29,0,Custer-Loomis (SO-AQ
48.3641401278483,2.23693980475023,24,27,0,FR04066
48.3547092558406,2.64529596660528,27,25,0,FR04328
48.1086536280958,-1.66576399764851,44,3,0,FR19002
47.1303,-119.2726,24,28,0,Moses Lake-Balsam St
46.8267,130.3961,30,22,0,发电厂
43.9167,125.323,33,19,0,食品厂
44.2994,-81.5753,36,16,0,Tiverton
43.5915522696866,3.88689345339823,23,29,0,FR08016
43.6099621683997,3.89860748470315,27,24,0,FR08030
43.85,125.217,35,17,0,岱山公园
43.600699,-116.347853,23,29,0,St. Lukes Meridian
43.48256,-110.745261,28,12,0,Jackson Mobile
43.367777769464,-8.41888888,40,9,0,ES1138A
43.5518999994638,-5.918,35,16,0,ES0880A
43.5704499994637,-5.95828,38,12,0,ES2054A
43.3726749994639,-5.872797,37,10,0,ES1572A
43.5228999994638,-5.689452,37,10,0,ES2069A
43.5298619994638,-5.673498,40,7,0,ES1272A
43.5165879994638,-5.67065,38,9,0,ES1974A
42.8758333294645,-8.55916666,36,13,0,ES1868A
42.8877777694645,-8.53083333,42,7,0,ES1901A
42.9980555494644,-7.55,39,10,0,ES1905A
42.194401,-72.555603,34,14,0,CHICOPEE
42.0616666594658,-7.40854166,38,11,0,ES2014A
40.136398,-111.660202,35,17,0,Spanish Fork
40.164585,-105.100861,8,40,0,Longmont
39.751099,-104.987198,12,29,0,Denver - CAMP - 2105
39.7386,-104.9394,9,43,0,Denver - NJH - 14th
39.7794,-105.00523,9,32,0,La Casa NCORE - 4545
39.5339,-105.07,13,38,0,Chatfield Park - 115
40.0128,-105.2667,16,35,0,Boulder - CU - 2102
38.6619,-121.7278,21,31,0,Woodland
39.10465,-94.57055,37,14,0,Troost
38.631057,-90.281144,33,15,0,Forest Park
37.9325,102.6486,13,34,0,东关招商场(190211启用)
37.962069,-119.120278,17,35,0,Lee Vining
38.1825,-85.5744,33,14,0,Carrithers Middle Sc
37.7575,115.6951,41,11,0,电机北厂
37.7379,115.6426,37,15,0,市监测站
37.4664,116.3061,41,11,0,儿童乐园
37.4372,116.2714,42,10,0,九衢泉纯净水厂
37.360701,-118.330835,12,40,0,NCore - White Mounta
36.270592,-115.238282,30,22,0,Joe Neal
36.048705,-115.052942,20,32,0,GreenValley
34.3708,107.1586,27,25,0,庙沟村
34.6917,-86.591698,26,12,0,Huntsville Old Airpo
33.5694,-112.1915,20,32,0,Glendale Community C
34.051102,-81.154999,18,2,0,Irmo
32.1883,119.68,42,10,0,新区办事处
31.768056,-106.501111,13,39,0,El Paso UTEP C12
30.9892,112.1969,40,12,0,掇刀
29.261,91.7706,19,33,0,山南人民医院
29.3411,104.7692,42,10,0,春华路
29.33972,104.7228,43,9,0,青杠林路
29.36028,104.7778,43,9,0,檀木林体育馆
28.9703,111.6975,20,32,0,市二中
28.63576,77.22445,27,35,0,US Diplomatic Post: New Delhi
27.8328,114.9289,8,44,0,第二水厂
27.8042,114.9119,2,7,0,新钢氧气厂
28.0089,120.634,6,46,0,瓯海
27.9939,120.677,6,46,0,南浦
28.0167,120.671,5,47,0,市站
26.2331,111.6236,13,39,0,零陵区环保局
26.4364,111.5992,11,41,0,永州市环保局
26.0733,-97.1667,17,23,0,Isla Blanca C323/C66
24.795928,113.598061,6,46,0,园林处
24.3406,109.3886,12,40,0,河西水厂
24.299,109.4221,14,38,0,市四中
23.0672,109.6042,21,31,0,江南子站　
23.0944,109.6014,22,30,0,贵城子站
23.105,113.433,3,49,0,市八十六中
23.1572,112.885,3,49,0,三水监测站
-19.2509,146.807,13,39,0,North Ward
-27.4975,153.035,7,45,0,Woolloongabba
-33.9333333,151.2419444,12,26,0,Randwick
59.94103,10.79803,37,15,0,Rv 4, Aker sykehus
52.2989,-113.7942,32,20,0,RED DEER RIVERSIDE D
51.95,-114.7,24,28,0,Caroline
47.672501,-117.364899,27,24,0,Spokane-Augusta Ave
47.203,123.6261,17,26,0,富区环保局
46.6384,126.9934,8,44,0,人和东街
46.375431,-120.729317,30,22,0,White Swan-Yakama Tr
